[
  {
    "Title": "IGM台中國際基督教會﹝日語﹞",
    "Type": "教會",
    "Area": "台灣 - 台中市",
    "Source": "igmtaiwan234@gmail.com",
    "PIC": "平瀬義樹 牧師",
    "Tel": "04-2320-2931",
    "href": "https://church.oursweb.net/church.php?pkey=811224",
    "Addr": "403020台中市西區台灣大道二段545號8樓之3",
    "Pos": {
      "lat": "24.156978",
      "lng": "120.65874489999999"
    }
  },
  {
    "Title": "一心聖教會",
    "Type": "教會",
    "Area": "台灣 - 台中市",
    "Source": "台灣聖教會總會",
    "PIC": "陳晁偉 牧師",
    "Tel": "04-2527-8503",
    "href": "https://church.oursweb.net/church.php?pkey=811227",
    "Addr": "420012台中市豐原區豐南街92巷14號",
    "Pos": {
      "lat": "24.2390235",
      "lng": "120.71441389999995"
    }
  },
  {
    "Title": "台灣基督長老教會七美教會（澎湖）",
    "Type": "教會",
    "Area": "台灣 - 澎湖縣",
    "Source": "台灣基督長老教會總會事務所",
    "PIC": "何素免 傳道師",
    "Tel": "06-997-1220",
    "href": "https://church.oursweb.net/church.php?pkey=811230",
    "Addr": "883001澎湖縣七美鄉南港村5鄰26-27號",
    "Pos": {
      "lat": "23.19852688616993",
      "lng": "119.4252769021607"
    }
  },
  {
    "Title": "台灣基督長老教會七張教會",
    "Type": "教會",
    "Area": "台灣 - 新北市",
    "Source": "台灣基督長老教會總會事務所",
    "PIC": "陳俊宏 牧師",
    "Tel": "02-2911-8765",
    "href": "https://church.oursweb.net/church.php?pkey=811232",
    "Addr": "231013新北市新店區平等街10號",
    "Pos": {
      "lat": "24.97423",
      "lng": "121.53685"
    }
  },
  {
    "Title": "台灣基督長老教會九如教會（壽中）",
    "Type": "教會",
    "Area": "台灣 - 高雄市",
    "Source": "台灣基督長老教會總會事務所",
    "PIC": "謝拱德 牧師",
    "Tel": "07-531-6976",
    "href": "https://church.oursweb.net/church.php?pkey=811234",
    "Addr": "804012高雄市鼓山區九如四路904號",
    "Pos": {
      "lat": "22.6541590",
      "lng": "120.2793030"
    }
  },
  {
    "Title": "台灣基督長老教會九族聯合教會",
    "Type": "教會",
    "Area": "台灣 - 南投縣",
    "Source": "台灣基督長老教會總會事務所",
    "PIC": "趙憶凡 牧師",
    "Tel": "049-289-9505, 0922-741-353",
    "href": "https://church.oursweb.net/church.php?pkey=811236",
    "Addr": "555007南投縣魚池鄉東池村文武巷15號",
    "Pos": {
      "lat": "23.8919855",
      "lng": "120.94034320000003"
    }
  },
  {
    "Title": "台灣基督長老教會二林教會",
    "Type": "教會",
    "Area": "台灣 - 彰化縣",
    "Source": "台灣基督長老教會總會事務所",
    "PIC": "戴智彰 牧師",
    "Tel": "04-896-0003",
    "href": "https://church.oursweb.net/church.php?pkey=811238",
    "Addr": "526021彰化縣二林鎮中正路13號",
    "Pos": {
      "lat": "23.8991680",
      "lng": "120.3692740"
    }
  },
  {
    "Title": "二空基督教會",
    "Type": "教會",
    "Area": "台灣 - 台南市",
    "Source": "tainan2konchurch@yahoo.com.tw",
    "PIC": "徐京台",
    "Tel": "06-267-5186",
    "href": "https://church.oursweb.net/church.php?pkey=811240",
    "Addr": "717006台南市仁德區成功里保華路281號",
    "Pos": {
      "lat": "22.9576044",
      "lng": "120.2267506"
    }
  },
  {
    "Title": "二苓福音教會",
    "Type": "教會",
    "Area": "台灣 - 高雄市",
    "Source": "https://www.facebook.com/erlinggc198807/",
    "PIC": "鄭室宜 牧師",
    "Tel": "07-801-8344",
    "href": "https://church.oursweb.net/church.php?pkey=811243",
    "Addr": "812012高雄市小港區漢民路381號10樓",
    "Pos": {
      "lat": "22.5669840",
      "lng": "120.3567430"
    }
  },
  {
    "Title": "台灣基督長老教會二重埔教會",
    "Type": "教會",
    "Area": "台灣 - 新竹縣",
    "Source": "台灣基督長老教會總會事務所",
    "PIC": "連江河 牧師",
    "Tel": "03-582-6932",
    "href": "https://church.oursweb.net/church.php?pkey=811245",
    "Addr": "310016新竹縣竹東鎮中興路二段335號",
    "Pos": {
      "lat": "24.7636200",
      "lng": "121.0593860"
    }
  },
  {
    "Title": "社團法人中華基督教福音協進會",
    "Type": "教育訓練",
    "Area": "台灣 - 新北市",
    "Source": "postmaster@ccea.org.tw",
    "PIC": "夏忠堅 牧師",
    "Tel": "02-8660-1070",
    "href": "https://church.oursweb.net/church.php?pkey=811223",
    "Addr": "234635新北市永和區保生路1號20樓",
    "Pos": {
      "lat": "25.0071409",
      "lng": "121.5066000"
    }
  },
  {
    "Title": "台灣基督長老教會一心教會",
    "Type": "教會",
    "Area": "台灣 - 高雄市",
    "Source": "台灣基督長老教會總會事務所",
    "PIC": "",
    "Tel": "07-722-8454",
    "href": "https://church.oursweb.net/church.php?pkey=811225",
    "Addr": "806026高雄市前鎮區一心一路268號",
    "Pos": {
      "lat": "22.607914",
      "lng": "120.31874500000004"
    }
  },
  {
    "Title": "台灣基督長老教會一甲教會",
    "Type": "教會",
    "Area": "台灣 - 高雄市",
    "Source": "台灣基督長老教會總會事務所",
    "PIC": "李宏恩 牧師",
    "Tel": "07-771-8155",
    "href": "https://church.oursweb.net/church.php?pkey=811228",
    "Addr": "830036高雄市鳳山區南昌街118號",
    "Pos": {
      "lat": "22.6049890",
      "lng": "120.3398680"
    }
  },
  {
    "Title": "台灣基督長老教會七堵教會",
    "Type": "教會",
    "Area": "台灣 - 基隆市",
    "Source": "台灣基督長老教會總會事務所",
    "PIC": "李旻諺 牧師",
    "Tel": "02-2456-5544",
    "href": "https://church.oursweb.net/church.php?pkey=811231",
    "Addr": "206002基隆市七堵區永富路78之1號",
    "Pos": {
      "lat": "25.09980181769615",
      "lng": "121.71555419199603"
    }
  },
  {
    "Title": "台灣基督長老教會九如教會（屏中）",
    "Type": "教會",
    "Area": "台灣 - 屏東縣",
    "Source": "台灣基督長老教會總會事務所",
    "PIC": "王中武 牧師",
    "Tel": "08-739-5551",
    "href": "https://church.oursweb.net/church.php?pkey=811233",
    "Addr": "904007屏東縣九如鄉九如路二段224巷8號",
    "Pos": {
      "lat": "22.732819353890232",
      "lng": "120.48953678902433"
    }
  },
  {
    "Title": "台灣基督長老教會九曲堂教會",
    "Type": "教會",
    "Area": "台灣 - 高雄市",
    "Source": "台灣基督長老教會總會事務所",
    "PIC": "盧輝哲 牧師",
    "Tel": "07-651-5551",
    "href": "https://church.oursweb.net/church.php?pkey=811235",
    "Addr": "840001高雄市大樹區久堂路城隍巷7之10號2樓",
    "Pos": {
      "lat": "22.6595711",
      "lng": "120.4213296"
    }
  },
  {
    "Title": "台灣基督長老教會二水教會",
    "Type": "教會",
    "Area": "台灣 - 彰化縣",
    "Source": "台灣基督長老教會總會事務所",
    "PIC": "",
    "Tel": "04-879-2147",
    "href": "https://church.oursweb.net/church.php?pkey=811237",
    "Addr": "530019彰化縣二水鄉聖化村拜堂巷2號",
    "Pos": {
      "lat": "23.8096309213874",
      "lng": "120.61792065410611"
    }
  },
  {
    "Title": "二林靈糧教會",
    "Type": "教會",
    "Area": "台灣 - 彰化縣",
    "Source": "靈糧全球使徒性網絡",
    "PIC": "劉永行 牧師",
    "Tel": "04-896-1117",
    "href": "https://church.oursweb.net/church.php?pkey=811239",
    "Addr": "526023彰化縣二林鎮北平里民有街36號",
    "Pos": {
      "lat": "23.9059485",
      "lng": "120.3694821"
    }
  },
  {
    "Title": "台灣基督長老教會二苓教會",
    "Type": "教會",
    "Area": "台灣 - 高雄市",
    "Source": "台灣基督長老教會總會事務所",
    "PIC": "",
    "Tel": "07-801-9221",
    "href": "https://church.oursweb.net/church.php?pkey=811241",
    "Addr": "812020高雄市小港區宏平路308號",
    "Pos": {
      "lat": "22.5700687",
      "lng": "120.3607831"
    }
  },
  {
    "Title": "台灣基督長老教會二重埔教會",
    "Type": "教會",
    "Area": "台灣 - 新北市",
    "Source": "台灣基督長老教會總會事務所",
    "PIC": "陳志聰 牧師",
    "Tel": "02-2995-6658",
    "href": "https://church.oursweb.net/church.php?pkey=811244",
    "Addr": "241019新北市三重區中興北街42巷17弄6號3樓",
    "Pos": {
      "lat": "25.0498290",
      "lng": "121.4687590"
    }
  },
  {
    "Title": "台灣基督長老教會二集團教會",
    "Type": "教會",
    "Area": "台灣 - 高雄市",
    "Source": "台灣基督長老教會總會事務所",
    "PIC": "溫宗義 牧師",
    "Tel": "07-689-5600, 0926-243-361",
    "href": "https://church.oursweb.net/church.php?pkey=811247",
    "Addr": "848005高雄市桃源區寶山里二集團80之5號",
    "Pos": {
      "lat": "23.0554094",
      "lng": "120.7215911"
    }
  },
  {
    "Title": "台灣基督長老教會人倫教會",
    "Type": "教會",
    "Area": "台灣 - 南投縣",
    "Source": "台灣基督長老教會總會事務所",
    "PIC": "全天文 牧師",
    "Tel": "049-277-3240",
    "href": "https://church.oursweb.net/church.php?pkey=811250",
    "Addr": "556006南投縣信義鄉人和村民生巷34號",
    "Pos": {
      "lat": "23.7794430",
      "lng": "120.8967290"
    }
  },
  {
    "Title": "台灣基督長老教會八里灣教會",
    "Type": "教會",
    "Area": "台灣 - 花蓮縣",
    "Source": "台灣基督長老教會總會事務所",
    "PIC": "曾志雄 傳道師",
    "Tel": "03-879-1660",
    "href": "https://church.oursweb.net/church.php?pkey=811253",
    "Addr": "977005花蓮縣豐濱鄉豐濱村15鄰八里灣8號",
    "Pos": {
      "lat": "23.568441",
      "lng": "121.487042"
    }
  },
  {
    "Title": "台灣基督長老教會八德教會（壽中）",
    "Type": "教會",
    "Area": "台灣 - 高雄市",
    "Source": "台灣基督長老教會總會事務所",
    "PIC": "莊書楣 牧師",
    "Tel": "07-374-1096",
    "href": "https://church.oursweb.net/church.php?pkey=811256",
    "Addr": "814031高雄市仁武區八德南路100巷2弄29號",
    "Pos": {
      "lat": "22.685394327613896",
      "lng": "120.33818657944325"
    }
  },
  {
    "Title": "中壢禮拜堂",
    "Type": "教會",
    "Area": "台灣 - 桃園市",
    "Source": "g0955268093@gmail.com",
    "PIC": "黃崇喜",
    "Tel": "0955-548-811",
    "href": "https://church.oursweb.net/church.php?pkey=811259",
    "Addr": "320028桃園市中壢區中華路一段859號2-3樓",
    "Pos": {
      "lat": "24.967028",
      "lng": "121.245396"
    }
  },
  {
    "Title": "台灣基督長老教會力里教會",
    "Type": "教會",
    "Area": "台灣 - 屏東縣",
    "Source": "台灣基督長老教會總會事務所",
    "PIC": "邱河泉 牧師",
    "Tel": "08-879-1623",
    "href": "https://church.oursweb.net/church.php?pkey=811261",
    "Addr": "942008屏東縣春日鄉力里村圓山路66號",
    "Pos": {
      "lat": "22.4339930",
      "lng": "120.6482740"
    }
  },
  {
    "Title": "台灣基督長老教會三一教會（中中）",
    "Type": "教會",
    "Area": "台灣 - 台中市",
    "Source": "台灣基督長老教會總會事務所",
    "PIC": "李佳明 牧師",
    "Tel": "04-2371-8748",
    "href": "https://church.oursweb.net/church.php?pkey=811264",
    "Addr": "403003台中市西區大全街158號",
    "Pos": {
      "lat": "24.1329220",
      "lng": "120.6679010"
    }
  },
  {
    "Title": "台灣基督長老教會三一教會（星中）",
    "Type": "教會",
    "Area": "台灣 - 台北市",
    "Source": "台灣基督長老教會總會事務所",
    "PIC": "徐信得 牧師",
    "Tel": "02-2769-6505",
    "href": "https://church.oursweb.net/church.php?pkey=811267",
    "Addr": "105070台北市松山區三民路148號2樓",
    "Pos": {
      "lat": "25.061023",
      "lng": "121.563399"
    }
  },
  {
    "Title": "台灣基督長老教會三仙教會",
    "Type": "教會",
    "Area": "台灣 - 台東縣",
    "Source": "台灣基督長老教會總會事務所",
    "PIC": "郭清鳳 牧師",
    "Tel": "089-850-950",
    "href": "https://church.oursweb.net/church.php?pkey=811269",
    "Addr": "961001台東縣成功鎮三仙里白蓮路221號",
    "Pos": {
      "lat": "23.1308490",
      "lng": "121.3982120"
    }
  },
  {
    "Title": "台灣基督長老教會三民教會（壽中）",
    "Type": "教會",
    "Area": "台灣 - 高雄市",
    "Source": "台灣基督長老教會總會事務所",
    "PIC": "李子和 牧師",
    "Tel": "07-282-2591",
    "href": "https://church.oursweb.net/church.php?pkey=811271",
    "Addr": "807003高雄市三民區三德西街138號",
    "Pos": {
      "lat": "22.6383240",
      "lng": "120.2927970"
    }
  },
  {
    "Title": "台灣基督長老教會二崙教會",
    "Type": "教會",
    "Area": "台灣 - 雲林縣",
    "Source": "台灣基督長老教會總會事務所",
    "PIC": "廖建志 牧師",
    "Tel": "05-598-2406",
    "href": "https://church.oursweb.net/church.php?pkey=811246",
    "Addr": "649001雲林縣二崙鄉崙東村中山路一段163號",
    "Pos": {
      "lat": "23.7715850",
      "lng": "120.4152015"
    }
  },
  {
    "Title": "二層行台福基督教會",
    "Type": "教會",
    "Area": "台灣 - 台南市",
    "Source": "台福基督教會總會台灣辦事處",
    "PIC": "郝秀麗",
    "Tel": "06-266-4249",
    "href": "https://church.oursweb.net/church.php?pkey=811248",
    "Addr": "717004台南市仁德區二行一路62號",
    "Pos": {
      "lat": "22.9173930",
      "lng": "120.2243790"
    }
  },
  {
    "Title": "台灣基督長老教會八里教會",
    "Type": "教會",
    "Area": "台灣 - 新北市",
    "Source": "台灣基督長老教會總會事務所",
    "PIC": "林禧岳 牧師",
    "Tel": "02-2610-1188",
    "href": "https://church.oursweb.net/church.php?pkey=811251",
    "Addr": "249002新北市八里區訊塘路80號",
    "Pos": {
      "lat": "25.1461205",
      "lng": "121.397693"
    }
  },
  {
    "Title": "台灣基督長老教會八德教會（竹中）",
    "Type": "教會",
    "Area": "台灣 - 桃園市",
    "Source": "台灣基督長老教會總會事務所",
    "PIC": "卓宗仁 牧師",
    "Tel": "03-362-7202",
    "href": "https://church.oursweb.net/church.php?pkey=811255",
    "Addr": "334022桃園市八德區自強街39號",
    "Pos": {
      "lat": "24.9682060",
      "lng": "121.3025170"
    }
  },
  {
    "Title": "八德聖教會",
    "Type": "教會",
    "Area": "台灣 - 桃園市",
    "Source": "台灣聖教會總會",
    "PIC": "張進興 牧師",
    "Tel": "03-365-4005",
    "href": "https://church.oursweb.net/church.php?pkey=811258",
    "Addr": "334029桃園市八德區介壽路二段770巷23號",
    "Pos": {
      "lat": "24.9367320",
      "lng": "121.2966530"
    }
  },
  {
    "Title": "台灣基督長老教會力行教會",
    "Type": "教會",
    "Area": "台灣 - 台中市",
    "Source": "台灣基督長老教會總會事務所",
    "PIC": "江馮同強",
    "Tel": "04-2360-7014",
    "href": "https://church.oursweb.net/church.php?pkey=811260",
    "Addr": "401007台中市東區進化路262號",
    "Pos": {
      "lat": "25.01491",
      "lng": "121.460396"
    }
  },
  {
    "Title": "台灣基督長老教會力發教會",
    "Type": "教會",
    "Area": "台灣 - 南投縣",
    "Source": "台灣基督長老教會總會事務所",
    "PIC": "許俊雄 牧師",
    "Tel": "0932-016-433",
    "href": "https://church.oursweb.net/church.php?pkey=811262",
    "Addr": "545014南投縣埔里鎮明德北路52號",
    "Pos": {
      "lat": "23.9729561",
      "lng": "120.9776734"
    }
  },
  {
    "Title": "台灣基督長老教會三一教會（南中）",
    "Type": "教會",
    "Area": "台灣 - 台南市",
    "Source": "台灣基督長老教會總會事務所",
    "PIC": "",
    "Tel": "06-237-5528",
    "href": "https://church.oursweb.net/church.php?pkey=811265",
    "Addr": "704016台南市北區開元路148巷21號",
    "Pos": {
      "lat": "23.0059980",
      "lng": "120.2196120"
    }
  },
  {
    "Title": "台灣基督長老教會三一教會（高中）",
    "Type": "教會",
    "Area": "台灣 - 高雄市",
    "Source": "台灣基督長老教會總會事務所",
    "PIC": "王子豪 牧師",
    "Tel": "07-312-3576",
    "href": "https://church.oursweb.net/church.php?pkey=811268",
    "Addr": "807013高雄市三民區天宮街28號",
    "Pos": {
      "lat": "22.6497270",
      "lng": "120.3020440"
    }
  },
  {
    "Title": "台灣基督長老教會三民教會（泰中）",
    "Type": "教會",
    "Area": "台灣 - 桃園市",
    "Source": "台灣基督長老教會總會事務所",
    "PIC": "林蓓茹 牧師",
    "Tel": "03-382-5696",
    "href": "https://church.oursweb.net/church.php?pkey=811270",
    "Addr": "336042桃園市復興區三民里19鄰基國派路511巷31號",
    "Pos": {
      "lat": "24.836748",
      "lng": "121.344127"
    }
  },
  {
    "Title": "三民路浸信會",
    "Type": "教會",
    "Area": "台灣 - 台北市",
    "Source": "中華基督教浸信會聯會",
    "PIC": "鍾昌貴 牧師",
    "Tel": "02-2763-0414",
    "href": "https://church.oursweb.net/church.php?pkey=811273",
    "Addr": "105014台北市松山區三民路107巷7號2樓之13",
    "Pos": {
      "lat": "25.0576448",
      "lng": "121.56317200000001"
    }
  },
  {
    "Title": "台灣基督長老教會三地門教會",
    "Type": "教會",
    "Area": "台灣 - 屏東縣",
    "Source": "台灣基督長老教會總會事務所",
    "PIC": "陳明光 牧師",
    "Tel": "08-799-1684",
    "href": "https://church.oursweb.net/church.php?pkey=811275",
    "Addr": "901002屏東縣三地門鄉三地村中正路二段29巷7號",
    "Pos": {
      "lat": "22.7145520",
      "lng": "120.6521640"
    }
  },
  {
    "Title": "台灣基督長老教會三角埔教會",
    "Type": "教會",
    "Area": "台灣 - 台北市",
    "Source": "台灣基督長老教會總會事務所",
    "PIC": "柯主同 牧師",
    "Tel": "02-2816-5701",
    "href": "https://church.oursweb.net/church.php?pkey=811278",
    "Addr": "111068台北市士林區延平北路六段261巷3號",
    "Pos": {
      "lat": "25.088832",
      "lng": "121.503891"
    }
  },
  {
    "Title": "三林聖教會",
    "Type": "教會",
    "Area": "台灣 - 桃園市",
    "Source": "台灣聖教會總會",
    "PIC": "",
    "Tel": "03-4793004",
    "href": "https://church.oursweb.net/church.php?pkey=811280",
    "Addr": "325005桃園市龍潭區民族路205號3-4樓",
    "Pos": {
      "lat": "24.8403116",
      "lng": "121.2354344"
    }
  },
  {
    "Title": "台灣基督長老教會三重埔教會",
    "Type": "教會",
    "Area": "台灣 - 新北市",
    "Source": "台灣基督長老教會總會事務所",
    "PIC": "陳志恩 傳道",
    "Tel": "02-2971-0508",
    "href": "https://church.oursweb.net/church.php?pkey=811285",
    "Addr": "241058新北市三重區自強路一段65號",
    "Pos": {
      "lat": "25.0672420",
      "lng": "121.4975990"
    }
  },
  {
    "Title": "三重基督喜信會",
    "Type": "教會",
    "Area": "台灣 - 新北市",
    "Source": "基督喜信會總會",
    "PIC": "林奇峰 牧師",
    "Tel": "02-2975-4474",
    "href": "https://church.oursweb.net/church.php?pkey=811288",
    "Addr": "241003新北市三重區正義南路105巷13號3樓",
    "Pos": {
      "lat": "25.0592867",
      "lng": "121.4978112"
    }
  },
  {
    "Title": "三重聖教會",
    "Type": "教會",
    "Area": "台灣 - 新北市",
    "Source": "台灣聖教會總會",
    "PIC": "邢淑慧 傳道",
    "Tel": "02-2971-1079",
    "href": "https://church.oursweb.net/church.php?pkey=811290",
    "Addr": "241040新北市三重區中正北路35號4樓",
    "Pos": {
      "lat": "25.0628280",
      "lng": "121.4912210"
    }
  },
  {
    "Title": "三峽大磐石純福音教會",
    "Type": "教會",
    "Area": "台灣 - 新北市",
    "Source": "財團法人基督教純福音教會台灣總會",
    "PIC": "蔡小寶 牧師",
    "Tel": "02-2673-8541",
    "href": "https://church.oursweb.net/church.php?pkey=811292",
    "Addr": "237006新北市三峽區民生街85號3樓",
    "Pos": {
      "lat": "24.9357477",
      "lng": "121.374784"
    }
  },
  {
    "Title": "台灣基督長老教會原美教會",
    "Type": "教會",
    "Area": "台灣 - 新北市",
    "Source": "台灣基督長老教會總會事務所",
    "PIC": "莎妃．黛思奴娜",
    "Tel": "02-2673-1264",
    "href": "https://church.oursweb.net/church.php?pkey=811294",
    "Addr": "237018新北市三峽區文化路82巷1號6樓",
    "Pos": {
      "lat": "24.9361759",
      "lng": "121.3720191"
    }
  },
  {
    "Title": "台灣基督長老教會三義教會",
    "Type": "教會",
    "Area": "台灣 - 苗栗縣",
    "Source": "台灣基督長老教會總會事務所",
    "PIC": "邱志仁 牧師",
    "Tel": "037-87-0792",
    "href": "https://church.oursweb.net/church.php?pkey=811299",
    "Addr": "367005苗栗縣三義鄉復興路2號",
    "Pos": {
      "lat": "24.4129900",
      "lng": "120.7704556"
    }
  },
  {
    "Title": "三民聖教會",
    "Type": "教會",
    "Area": "台灣 - 高雄市",
    "Source": "台灣聖教會總會",
    "PIC": "余俊益 牧師",
    "Tel": "07-343-8448",
    "href": "https://church.oursweb.net/church.php?pkey=811272",
    "Addr": "813024高雄市左營區重立路61號",
    "Pos": {
      "lat": "22.672935100285795",
      "lng": "120.3127959944427"
    }
  },
  {
    "Title": "台灣基督長老教會三光教會",
    "Type": "教會",
    "Area": "台灣 - 新北市",
    "Source": "台灣基督長老教會總會事務所",
    "PIC": "趙謨立",
    "Tel": "02-2287-3705",
    "href": "https://church.oursweb.net/church.php?pkey=811274",
    "Addr": "241069新北市三重區三和路四段388-2號3樓",
    "Pos": {
      "lat": "25.0790290",
      "lng": "121.4821470"
    }
  },
  {
    "Title": "台灣基督長老教會三多教會",
    "Type": "教會",
    "Area": "台灣 - 高雄市",
    "Source": "台灣基督長老教會總會事務所",
    "PIC": "陳信忠 牧師",
    "Tel": "07-771-9531",
    "href": "https://church.oursweb.net/church.php?pkey=811276",
    "Addr": "802020高雄市苓雅區武嶺街101號",
    "Pos": {
      "lat": "22.6226138",
      "lng": "120.33297730000004"
    }
  },
  {
    "Title": "台灣基督長老教會三和教會",
    "Type": "教會",
    "Area": "台灣 - 新北市",
    "Source": "台灣基督長老教會總會事務所",
    "PIC": "林信澤 牧師",
    "Tel": "02-2901-4783",
    "href": "https://church.oursweb.net/church.php?pkey=811279",
    "Addr": "242052新北市新莊區中正路929巷26號",
    "Pos": {
      "lat": "25.0419800",
      "lng": "121.4650110"
    }
  },
  {
    "Title": "台灣基督長老教會三星教會",
    "Type": "教會",
    "Area": "台灣 - 宜蘭縣",
    "Source": "台灣基督長老教會總會事務所",
    "PIC": "黃保諭 牧師",
    "Tel": "03-989-2352",
    "href": "https://church.oursweb.net/church.php?pkey=811283",
    "Addr": "266008宜蘭縣三星鄉三星路五段192號",
    "Pos": {
      "lat": "24.6659110",
      "lng": "121.6494260"
    }
  },
  {
    "Title": "三重神召會",
    "Type": "教會",
    "Area": "台灣 - 新北市",
    "Source": "中國神召會台灣區議會",
    "PIC": "朴世光 牧師",
    "Tel": "02-2986-2511",
    "href": "https://church.oursweb.net/church.php?pkey=811286",
    "Addr": "241014新北市三重區捷運路19巷5號",
    "Pos": {
      "lat": "25.0568530",
      "lng": "121.4853250"
    }
  },
  {
    "Title": "台灣基督長老教會三重救恩教會",
    "Type": "教會",
    "Area": "台灣 - 新北市",
    "Source": "台灣基督長老教會總會事務所",
    "PIC": "",
    "Tel": "02-2984-2306",
    "href": "https://church.oursweb.net/church.php?pkey=811289",
    "Addr": "241032新北市三重區自強路一段160巷3弄9號",
    "Pos": {
      "lat": "25.0656830",
      "lng": "121.4949230"
    }
  },
  {
    "Title": "三重靈糧堂",
    "Type": "教會",
    "Area": "台灣 - 新北市",
    "Source": "靈糧全球使徒性網絡",
    "PIC": "萬游艷凰 牧師",
    "Tel": "02-8981-6327",
    "href": "https://church.oursweb.net/church.php?pkey=811291",
    "Addr": "241041新北市三重區中正北路2號B1",
    "Pos": {
      "lat": "25.0630796",
      "lng": "121.4891067"
    }
  },
  {
    "Title": "台灣基督長老教會三峽教會",
    "Type": "教會",
    "Area": "台灣 - 新北市",
    "Source": "台灣基督長老教會總會事務所",
    "PIC": "",
    "Tel": "02-2671-1981",
    "href": "https://church.oursweb.net/church.php?pkey=811293",
    "Addr": "237005新北市三峽區民族街1號",
    "Pos": {
      "lat": "24.9315970",
      "lng": "121.3691820"
    }
  },
  {
    "Title": "三愛會石牌教會",
    "Type": "教會",
    "Area": "台灣 - 台北市",
    "Source": "melodymelody0209@yahoo.com.tw",
    "PIC": "侯樹良 牧師",
    "Tel": "02-2821-4532",
    "href": "https://church.oursweb.net/church.php?pkey=811298",
    "Addr": "112031台北市北投區石牌路一段71巷15弄3號",
    "Pos": {
      "lat": "25.114311",
      "lng": "121.510795"
    }
  },
  {
    "Title": "台灣基督長老教會下半天教會",
    "Type": "教會",
    "Area": "台灣 - 嘉義縣",
    "Source": "台灣基督長老教會總會事務所",
    "PIC": "劉宇捷 傳道師",
    "Tel": "05-375-0840",
    "href": "https://church.oursweb.net/church.php?pkey=811301",
    "Addr": "611005嘉義縣鹿草鄉下半天5號",
    "Pos": {
      "lat": "23.4204920",
      "lng": "120.3397100"
    }
  },
  {
    "Title": "台灣基督長老教會下馬教會",
    "Type": "教會",
    "Area": "台灣 - 台東縣",
    "Source": "台灣基督長老教會總會事務所",
    "PIC": "伍識賢 傳道師",
    "Tel": "0928-569-520",
    "href": "https://church.oursweb.net/church.php?pkey=811303",
    "Addr": "957005台東縣海端鄉霧鹿村下馬5鄰1號",
    "Pos": {
      "lat": "23.1560836",
      "lng": "121.0637928"
    }
  },
  {
    "Title": "台灣基督長老教會下德武教會",
    "Type": "教會",
    "Area": "台灣 - 花蓮縣",
    "Source": "台灣基督長老教會總會事務所",
    "PIC": "林春銘",
    "Tel": "03-887-5718",
    "href": "https://church.oursweb.net/church.php?pkey=811305",
    "Addr": "981005花蓮縣玉里鎮德武里13鄰49號",
    "Pos": {
      "lat": "23.4713925",
      "lng": "121.417046"
    }
  },
  {
    "Title": "上光基督教會",
    "Type": "教會",
    "Area": "台灣 - 新竹縣",
    "Source": "victoria@greenark.net",
    "PIC": "高正勝 (達那伊谷) 牧師",
    "Tel": "0910427360",
    "href": "https://church.oursweb.net/church.php?pkey=811307",
    "Addr": "313004新竹縣尖石鄉鄉錦屏村6鄰16號之2",
    "Pos": {
      "lat": "24.6813208",
      "lng": "121.2126772"
    }
  },
  {
    "Title": "台灣基督長老教會久美教會",
    "Type": "教會",
    "Area": "台灣 - 南投縣",
    "Source": "台灣基督長老教會總會事務所",
    "PIC": "Dahu Istanda 史永偉 牧師",
    "Tel": "049-283-1554",
    "href": "https://church.oursweb.net/church.php?pkey=811310",
    "Addr": "556002南投縣信義鄉望美村美信巷31號",
    "Pos": {
      "lat": "23.6194630",
      "lng": "120.8840860"
    }
  },
  {
    "Title": "財團法人斗六基督教浸信會",
    "Type": "教會",
    "Area": "台灣 - 雲林縣",
    "Source": "中華浸信宣道會聯合會",
    "PIC": "",
    "Tel": "05-532-2149",
    "href": "https://church.oursweb.net/church.php?pkey=811312",
    "Addr": "640007雲林縣斗六市文化路42號",
    "Pos": {
      "lat": "23.7108070",
      "lng": "120.5463690"
    }
  },
  {
    "Title": "水上基督教浸信宣道會",
    "Type": "教會",
    "Area": "台灣 - 嘉義縣",
    "Source": "中華浸信宣道會聯合會",
    "PIC": "闕雅萍",
    "Tel": "05-268-6324",
    "href": "https://church.oursweb.net/church.php?pkey=811314",
    "Addr": "608013嘉義縣水上鄉柳新村柳子林48之10號",
    "Pos": {
      "lat": "23.4290671",
      "lng": "120.4098487"
    }
  },
  {
    "Title": "中華浸信宣道會台中教會",
    "Type": "教會",
    "Area": "台灣 - 台中市",
    "Source": "中華浸信宣道會聯合會",
    "PIC": "江英輝 執事",
    "Tel": "04-2211-4785, 04-22119774",
    "href": "https://church.oursweb.net/church.php?pkey=811316",
    "Addr": "401001台中市東區練武路111號",
    "Pos": {
      "lat": "24.1433628",
      "lng": "120.6881268"
    }
  },
  {
    "Title": "中華浸信宣道會台南永華教會",
    "Type": "教會",
    "Area": "台灣 - 台南市",
    "Source": "708006台南市安平區建平七街683號",
    "PIC": "",
    "Tel": "",
    "href": "https://church.oursweb.net/church.php?pkey=811318",
    "Addr": "708006台南市安平區建平七街683號",
    "Pos": {
      "lat": "22.9900873",
      "lng": "120.1692318"
    }
  },
  {
    "Title": "中華浸信宣道會台中重慶教會",
    "Type": "教會",
    "Area": "台灣 - 台中市",
    "Source": "中華浸信宣道會聯合會",
    "PIC": "李麗珍 牧師",
    "Tel": "04-2312-6966",
    "href": "https://church.oursweb.net/church.php?pkey=811321",
    "Addr": "407042台中市西屯區重慶路252號",
    "Pos": {
      "lat": "24.1693850",
      "lng": "120.6611450"
    }
  },
  {
    "Title": "基督教三義崇真堂",
    "Type": "教會",
    "Area": "台灣 - 苗栗縣",
    "Source": "基督教台灣崇真會",
    "PIC": "葛欣如",
    "Tel": "037-87-5332",
    "href": "https://church.oursweb.net/church.php?pkey=811300",
    "Addr": "367005苗栗縣三義鄉中正路85號",
    "Pos": {
      "lat": "24.3115400",
      "lng": "120.8266650"
    }
  },
  {
    "Title": "台灣基督長老教會下盆教會",
    "Type": "教會",
    "Area": "台灣 - 新北市",
    "Source": "台灣基督長老教會總會事務所",
    "PIC": "",
    "Tel": "02-2661-6015",
    "href": "https://church.oursweb.net/church.php?pkey=811302",
    "Addr": "233002新北市烏來區福山里屯鹿20號",
    "Pos": {
      "lat": "24.775055",
      "lng": "121.500345"
    }
  },
  {
    "Title": "台灣基督長老教會下野教會",
    "Type": "教會",
    "Area": "台灣 - 台東縣",
    "Source": "台灣基督長老教會總會事務所",
    "PIC": "田斯寧 牧師",
    "Tel": "089-56-8138",
    "href": "https://church.oursweb.net/church.php?pkey=811304",
    "Addr": "953103台東縣延平鄉鸞山村榕山路下野12鄰49號",
    "Pos": {
      "lat": "22.8855591",
      "lng": "121.160283"
    }
  },
  {
    "Title": "財團法人基督教上石里浸信會",
    "Type": "教會",
    "Area": "台灣 - 台中市",
    "Source": "中華基督教浸信會聯會",
    "PIC": "梁克丞 牧師",
    "Tel": "04-2451-4593",
    "href": "https://church.oursweb.net/church.php?pkey=811306",
    "Addr": "407037台中市西屯區慶和街91號",
    "Pos": {
      "lat": "24.1757360",
      "lng": "120.6465330"
    }
  },
  {
    "Title": "多良長老教會",
    "Type": "教會",
    "Area": "台灣 - 台東縣",
    "Source": "台灣基督長老教會總會事務所",
    "PIC": "王淑媛 傳道師",
    "Tel": "089-771521；0977-756621",
    "href": "https://church.oursweb.net/church.php?pkey=811308",
    "Addr": "963006台東縣太麻里鄉多良村5鄰65-1號",
    "Pos": {
      "lat": "22.5081693",
      "lng": "120.9566908"
    }
  },
  {
    "Title": "中華浸信宣道會大安教會",
    "Type": "教會",
    "Area": "台灣 - 台北市",
    "Source": "中華浸信宣道會聯合會",
    "PIC": "施義忠 牧師",
    "Tel": "02-2707-7332",
    "href": "https://church.oursweb.net/church.php?pkey=811311",
    "Addr": "106097台北市大安區瑞安街23巷11號",
    "Pos": {
      "lat": "25.031056",
      "lng": "121.544774"
    }
  },
  {
    "Title": "中華浸信宣道會斗南教會",
    "Type": "教會",
    "Area": "台灣 - 雲林縣",
    "Source": "中華浸信宣道會聯合會",
    "PIC": "沈介仁 牧師",
    "Tel": "05-597-2149",
    "href": "https://church.oursweb.net/church.php?pkey=811313",
    "Addr": "630041雲林縣斗南鎮中山路163號",
    "Pos": {
      "lat": "23.6453070",
      "lng": "120.5619707"
    }
  },
  {
    "Title": "中華浸信宣道會北港教會",
    "Type": "教會",
    "Area": "台灣 - 雲林縣",
    "Source": "中華浸信宣道會聯合會",
    "PIC": "劉美珊 牧師",
    "Tel": "05-782-5107",
    "href": "https://church.oursweb.net/church.php?pkey=811315",
    "Addr": "651002雲林縣北港鎮西勢街7號",
    "Pos": {
      "lat": "23.5673840",
      "lng": "120.3018920"
    }
  },
  {
    "Title": "中華浸信宣道會台東黎明教會",
    "Type": "教會",
    "Area": "台灣 - 台東縣",
    "Source": "中華浸信宣道會聯合會",
    "PIC": "陳潤淑",
    "Tel": "089-22-4724",
    "href": "https://church.oursweb.net/church.php?pkey=811317",
    "Addr": "950020台東縣台東市志航路一段9號",
    "Pos": {
      "lat": "22.7780854",
      "lng": "121.12698260000002"
    }
  },
  {
    "Title": "中華浸信宣道會竹山教會",
    "Type": "教會",
    "Area": "台灣 - 南投縣",
    "Source": "中華浸信宣道會聯合會",
    "PIC": "李桂蓉",
    "Tel": "049-264-4363",
    "href": "https://church.oursweb.net/church.php?pkey=811320",
    "Addr": "557003南投縣竹山鎮竹山村菜園路50號",
    "Pos": {
      "lat": "23.7538009",
      "lng": "120.6835721"
    }
  },
  {
    "Title": "中華浸信宣道會車城福音中心",
    "Type": "教會",
    "Area": "台灣 - 屏東縣",
    "Source": "中華浸信宣道會聯合會",
    "PIC": "林宣裕 傳道",
    "Tel": "08-882-4813",
    "href": "https://church.oursweb.net/church.php?pkey=811324",
    "Addr": "944012屏東縣車城鄉仁愛路1巷8號",
    "Pos": {
      "lat": "22.0742973",
      "lng": "120.7149805"
    }
  },
  {
    "Title": "中華基督教浸信宣道會松竹教會",
    "Type": "教會",
    "Area": "台灣 - 台中市",
    "Source": "中華浸信宣道會聯合會",
    "PIC": "高臨榮 牧師",
    "Tel": "04-22421332",
    "href": "https://church.oursweb.net/church.php?pkey=811326",
    "Addr": "406014台中市北屯區松明街70號",
    "Pos": {
      "lat": "24.1860990",
      "lng": "120.6995490"
    }
  },
  {
    "Title": "中華浸信宣道會虎尾教會",
    "Type": "教會",
    "Area": "台灣 - 雲林縣",
    "Source": "中華浸信宣道會聯合會",
    "PIC": "",
    "Tel": "05-631-1269",
    "href": "https://church.oursweb.net/church.php?pkey=811328",
    "Addr": "632003雲林縣虎尾鎮林森路一段517號",
    "Pos": {
      "lat": "23.7085830",
      "lng": "120.4324880"
    }
  },
  {
    "Title": "中華基督教浸信宣道會員林教會",
    "Type": "教會",
    "Area": "台灣 - 彰化縣",
    "Source": "中華浸信宣道會聯合會",
    "PIC": "高瑞言",
    "Tel": "04-835-3960",
    "href": "https://church.oursweb.net/church.php?pkey=811331",
    "Addr": "510019彰化縣員林市三民東街25號",
    "Pos": {
      "lat": "23.9592600",
      "lng": "120.5757780"
    }
  },
  {
    "Title": "中華浸信宣道會梅林教會",
    "Type": "教會",
    "Area": "台灣 - 雲林縣",
    "Source": "中華浸信宣道會聯合會",
    "PIC": "張順誨",
    "Tel": "05-532-3865",
    "href": "https://church.oursweb.net/church.php?pkey=811333",
    "Addr": "640108雲林縣斗六市梅林路48號",
    "Pos": {
      "lat": "23.7019499",
      "lng": "120.6023701"
    }
  },
  {
    "Title": "中華浸信宣道會黎明教會",
    "Type": "教會",
    "Area": "台灣 - 台中市",
    "Source": "中華浸信宣道會聯合會",
    "PIC": "劉進耀 牧師",
    "Tel": "04-2479-5916",
    "href": "https://church.oursweb.net/church.php?pkey=811337",
    "Addr": "408001台中市南屯區楓和路892號",
    "Pos": {
      "lat": "24.118015475545",
      "lng": "120.62567967055224"
    }
  },
  {
    "Title": "中華浸信宣道會南京教會",
    "Type": "教會",
    "Area": "台灣 - 高雄市",
    "Source": "中華浸信宣道會聯合會",
    "PIC": "陳明志 牧師",
    "Tel": "07-763-1085",
    "href": "https://church.oursweb.net/church.php?pkey=811340",
    "Addr": "830043高雄市鳳山區南京路340巷2號",
    "Pos": {
      "lat": "22.617372496973455",
      "lng": "120.34603033065798"
    }
  },
  {
    "Title": "中華神的教會",
    "Type": "教會",
    "Area": "台灣 - 台中市",
    "Source": "406028台中市北屯區崇德路一段548號7樓",
    "PIC": "陳煥光",
    "Tel": "04-2233-3729",
    "href": "https://church.oursweb.net/church.php?pkey=811342",
    "Addr": "406028台中市北屯區崇德路一段548號7樓",
    "Pos": {
      "lat": "24.16711",
      "lng": "120.685447"
    }
  },
  {
    "Title": "中華基督長老教會山宣總會復興教會",
    "Type": "教會",
    "Area": "台灣 - 花蓮縣",
    "Source": "971066花蓮縣新城鄉北埔村復興路274號",
    "PIC": "邱美珠",
    "Tel": "03-8265275",
    "href": "https://church.oursweb.net/church.php?pkey=811344",
    "Addr": "971066花蓮縣新城鄉北埔村復興路274號",
    "Pos": {
      "lat": "24.0328484",
      "lng": "121.6027662"
    }
  },
  {
    "Title": "中華基督長老會平鎮教會",
    "Type": "教會",
    "Area": "台灣 - 桃園市",
    "Source": "中華基督教長老會",
    "PIC": "陳宜靜",
    "Tel": "03-450-8801",
    "href": "https://church.oursweb.net/church.php?pkey=811347",
    "Addr": "324025桃園市平鎮區平東路239巷120弄11號",
    "Pos": {
      "lat": "24.9153310",
      "lng": "121.2489900"
    }
  },
  {
    "Title": "中華浸信宣道會西螺教會",
    "Type": "教會",
    "Area": "台灣 - 雲林縣",
    "Source": "中華浸信宣道會聯合會",
    "PIC": "楊青生 牧師",
    "Tel": "05-586-4164",
    "href": "https://church.oursweb.net/church.php?pkey=811323",
    "Addr": "648001雲林縣西螺鎮文昌路107號",
    "Pos": {
      "lat": "23.7982980",
      "lng": "120.4635000"
    }
  },
  {
    "Title": "中華浸信宣道會林頭教會",
    "Type": "教會",
    "Area": "台灣 - 雲林縣",
    "Source": "中華浸信宣道會聯合會",
    "PIC": "吳佳哲 牧師",
    "Tel": "05-532-2238",
    "href": "https://church.oursweb.net/church.php?pkey=811325",
    "Addr": "640102雲林縣斗六市榮譽路205號",
    "Pos": {
      "lat": "23.7041882",
      "lng": "120.5583360"
    }
  },
  {
    "Title": "中華浸信宣道會武昌教會",
    "Type": "教會",
    "Area": "台灣 - 高雄市",
    "Source": "中華浸信宣道會聯合會",
    "PIC": "郭俊豪 牧師",
    "Tel": "07-333-2345",
    "href": "https://church.oursweb.net/church.php?pkey=811327",
    "Addr": "802037高雄市苓雅區民權一路38號",
    "Pos": {
      "lat": "22.619765",
      "lng": "120.313795"
    }
  },
  {
    "Title": "財團法人台灣省屏東縣中華浸信宣道會屏東教會",
    "Type": "教會",
    "Area": "台灣 - 屏東縣",
    "Source": "中華浸信宣道會聯合會",
    "PIC": "巫俊雄",
    "Tel": "08-736-2382, 0939-651-429",
    "href": "https://church.oursweb.net/church.php?pkey=811330",
    "Addr": "900027屏東縣屏東市自由路339號",
    "Pos": {
      "lat": "22.6784270",
      "lng": "120.4973490"
    }
  },
  {
    "Title": "高雄市基督教高榮教會",
    "Type": "教會",
    "Area": "台灣 - 高雄市",
    "Source": "https://www.facebook.com/177752412287737/",
    "PIC": "宋元聖",
    "Tel": "07-345-9032",
    "href": "https://church.oursweb.net/church.php?pkey=811332",
    "Addr": "813022高雄市左營區榮總路203巷16號",
    "Pos": {
      "lat": "22.68294865897825",
      "lng": "120.32127967358272"
    }
  },
  {
    "Title": "中華浸信宣道會福和教會",
    "Type": "教會",
    "Area": "台灣 - 新北市",
    "Source": "中華浸信宣道會聯合會",
    "PIC": "",
    "Tel": "02-2927-8883",
    "href": "https://church.oursweb.net/church.php?pkey=811336",
    "Addr": "234016新北市永和區中興街133巷13號B1",
    "Pos": {
      "lat": "25.0123400",
      "lng": "121.5178400"
    }
  },
  {
    "Title": "中華浸信宣道會覺民教會",
    "Type": "教會",
    "Area": "台灣 - 高雄市",
    "Source": "中華浸信宣道會聯合會",
    "PIC": "雪新心 牧師",
    "Tel": "07-384-1248",
    "href": "https://church.oursweb.net/church.php?pkey=811339",
    "Addr": "807560高雄市三民區臥龍路113號3-5樓",
    "Pos": {
      "lat": "22.6403600",
      "lng": "120.3301480"
    }
  },
  {
    "Title": "中華海外宣道會桃園福音堂",
    "Type": "教會",
    "Area": "台灣 - 桃園市",
    "Source": "330055桃園市桃園區樹林六街3號",
    "PIC": "尹在興",
    "Tel": "03-362-8461",
    "href": "https://church.oursweb.net/church.php?pkey=811341",
    "Addr": "330055桃園市桃園區樹林六街3號",
    "Pos": {
      "lat": "24.9800640",
      "lng": "121.3157380"
    }
  },
  {
    "Title": "財團法人中華基督長老會山宣總會",
    "Type": "宗派中心",
    "Area": "台灣 - 花蓮縣",
    "Source": "watan@mail3.intellect.com.tw",
    "PIC": "林韋",
    "Tel": "03-8610148",
    "href": "https://church.oursweb.net/church.php?pkey=811343",
    "Addr": "972002花蓮縣秀林鄉秀林村秀林路10-1號",
    "Pos": {
      "lat": "24.1173930",
      "lng": "121.6250340"
    }
  },
  {
    "Title": "中華基督長老會山宣總會板橋教會",
    "Type": "教會",
    "Area": "台灣 - 新北市",
    "Source": "財團法人中華基督長老會山宣總會",
    "PIC": "林玉蘭",
    "Tel": "02-2275-3425",
    "href": "https://church.oursweb.net/church.php?pkey=811345",
    "Addr": "220095新北市板橋區大觀路2段22-2號3樓",
    "Pos": {
      "lat": "25.0030850",
      "lng": "121.4465920"
    }
  },
  {
    "Title": "中華基督教中央浸信會",
    "Type": "教會",
    "Area": "台灣 - 新北市",
    "Source": "中華基督教浸信會聯會",
    "PIC": "郭洪生 牧師",
    "Tel": "02-2219-8073",
    "href": "https://church.oursweb.net/church.php?pkey=811350",
    "Addr": "231034新北市新店區中央三街15號",
    "Pos": {
      "lat": "24.9736730",
      "lng": "121.5291530"
    }
  },
  {
    "Title": "中華基督教加恩堂",
    "Type": "教會",
    "Area": "台灣 - 台北市",
    "Source": "http://blog.udn.com/jiaentang/article",
    "PIC": "劉滿榮",
    "Tel": "02-2765-0005",
    "href": "https://church.oursweb.net/church.php?pkey=811352",
    "Addr": "110064台北市信義區永吉路120巷33號4樓",
    "Pos": {
      "lat": "25.044565",
      "lng": "121.57041"
    }
  },
  {
    "Title": "社團法人台北市基督教安提阿浸信會",
    "Type": "教會",
    "Area": "台灣 - 台北市",
    "Source": "中華基督教浸信會聯會",
    "PIC": "黃淑靖 牧師",
    "Tel": "02-3365-2942",
    "href": "https://church.oursweb.net/church.php?pkey=811354",
    "Addr": "100045台北市中正區師大路159號2樓",
    "Pos": {
      "lat": "25.020639",
      "lng": "121.52757"
    }
  },
  {
    "Title": "基督教長老會台東福音教會",
    "Type": "教會",
    "Area": "台灣 - 台東縣",
    "Source": "950011台東縣台東市甘泉街29號",
    "PIC": "陳雅各",
    "Tel": "089-32-8595",
    "href": "https://church.oursweb.net/church.php?pkey=811363",
    "Addr": "950011台東縣台東市甘泉街29號",
    "Pos": {
      "lat": "22.7581418",
      "lng": "121.1384137"
    }
  },
  {
    "Title": "財團法人台北市中華基督教長老會台北信友堂",
    "Type": "教會",
    "Area": "台灣 - 台北市",
    "Source": "中華基督教長老會",
    "PIC": "林炳宏",
    "Tel": "02-2363-1035",
    "href": "https://church.oursweb.net/church.php?pkey=811365",
    "Addr": "106019台北市大安區羅斯福路三段269巷5號",
    "Pos": {
      "lat": "25.019176",
      "lng": "121.530864"
    }
  },
  {
    "Title": "中華基督教信義會永生堂",
    "Type": "教會",
    "Area": "台灣 - 桃園市",
    "Source": "財團法人台灣省中華基督教信義會",
    "PIC": "劉春雄 牧師",
    "Tel": "03-334-3213",
    "href": "https://church.oursweb.net/church.php?pkey=811368",
    "Addr": "333035桃園市龜山區萬壽路三段99巷16之5號",
    "Pos": {
      "lat": "24.9907520",
      "lng": "121.3213010"
    }
  },
  {
    "Title": "中華基督教信義會厚賜堂",
    "Type": "教會",
    "Area": "台灣 - 新竹縣",
    "Source": "財團法人台灣省中華基督教信義會",
    "PIC": "",
    "Tel": "03-596-0457",
    "href": "https://church.oursweb.net/church.php?pkey=811370",
    "Addr": "310006新竹縣竹東鎮東寧路二段11巷1號",
    "Pos": {
      "lat": "24.7295470",
      "lng": "121.0913690"
    }
  },
  {
    "Title": "財團法人台灣省中華基督教信義會得勝堂",
    "Type": "教會",
    "Area": "台灣 - 新竹市",
    "Source": "財團法人台灣省中華基督教信義會",
    "PIC": "周士煒 牧師",
    "Tel": "03-573-7271",
    "href": "https://church.oursweb.net/church.php?pkey=811372",
    "Addr": "300065新竹市東區大學路51巷11號",
    "Pos": {
      "lat": "24.7875900",
      "lng": "121.0039910"
    }
  },
  {
    "Title": "中華基督教信義會復興堂",
    "Type": "教會",
    "Area": "台灣 - 台北市",
    "Source": "財團法人台灣省中華基督教信義會",
    "PIC": "李靖波 牧師",
    "Tel": "02-2720-0440",
    "href": "https://church.oursweb.net/church.php?pkey=811376",
    "Addr": "110604台北市信義區信義路四段375號10樓-2",
    "Pos": {
      "lat": "25.033267",
      "lng": "121.55775"
    }
  },
  {
    "Title": "中華基督教便以利會大安堂",
    "Type": "教會",
    "Area": "台灣 - 台北市",
    "Source": "中華基督教便以利會",
    "PIC": "徐壯華 牧師",
    "Tel": "02-2736-7209",
    "href": "https://church.oursweb.net/church.php?pkey=811379",
    "Addr": "110005台北市信義區嘉興街254號",
    "Pos": {
      "lat": "25.025004",
      "lng": "121.555733"
    }
  },
  {
    "Title": "中華基督教長老會感恩堂",
    "Type": "教會",
    "Area": "台灣 - 台北市",
    "Source": "中華基督教長老會",
    "PIC": "何細亞 長老",
    "Tel": "02-2832-7510",
    "href": "https://church.oursweb.net/church.php?pkey=811348",
    "Addr": "111006台北市士林區福林路377號",
    "Pos": {
      "lat": "25.100052",
      "lng": "121.535142"
    }
  },
  {
    "Title": "中華基督教中正教會",
    "Type": "教會",
    "Area": "台灣 - 花蓮縣",
    "Source": "982009花蓮縣卓溪鄉中正路56號",
    "PIC": "田定芳",
    "Tel": "089-886779",
    "href": "https://church.oursweb.net/church.php?pkey=811351",
    "Addr": "982009花蓮縣卓溪鄉中正路56號",
    "Pos": {
      "lat": "23.3328450",
      "lng": "121.3161550"
    }
  },
  {
    "Title": "財團法人基督教中央教會總部",
    "Type": "教會",
    "Area": "台灣 - 新北市",
    "Source": "shi5827@gmail.com",
    "PIC": "施素珍",
    "Tel": "02-2603-3633",
    "href": "https://church.oursweb.net/church.php?pkey=811353",
    "Addr": "244004新北市林口區湖子路9之5號",
    "Pos": {
      "lat": "25.0960361",
      "lng": "121.38659050000001"
    }
  },
  {
    "Title": "中華基督教長老教會山宣總會嘉義教會",
    "Type": "教會",
    "Area": "台灣 - 嘉義市",
    "Source": "600053嘉義市東區忠孝路537-51號4樓",
    "PIC": "盧寬厚",
    "Tel": "05-2762990",
    "href": "https://church.oursweb.net/church.php?pkey=811360",
    "Addr": "600053嘉義市東區忠孝路537-51號4樓",
    "Pos": {
      "lat": "23.4989040",
      "lng": "120.4503790"
    }
  },
  {
    "Title": "財團法人台北市中華基督教長老會石牌信友堂",
    "Type": "教會",
    "Area": "台灣 - 台北市",
    "Source": "中華基督教長老會",
    "PIC": "彭浩靈 牧師",
    "Tel": "02-2897-7702",
    "href": "https://church.oursweb.net/church.php?pkey=811364",
    "Addr": "112030台北市北投區大業路166號8樓",
    "Pos": {
      "lat": "25.1251325",
      "lng": "121.49908600000003"
    }
  },
  {
    "Title": "中華基督教長老會內湖信友堂",
    "Type": "教會",
    "Area": "台灣 - 台北市",
    "Source": "中華基督教長老會",
    "PIC": "馬清璽 牧師",
    "Tel": "02-8792-9734",
    "href": "https://church.oursweb.net/church.php?pkey=811366",
    "Addr": "114018台北市內湖區成功路四段346號B1",
    "Pos": {
      "lat": "25.08486",
      "lng": "121.599657"
    }
  },
  {
    "Title": "中華基督教信義會信義堂",
    "Type": "教會",
    "Area": "台灣 - 新竹市",
    "Source": "財團法人台灣省中華基督教信義會",
    "PIC": "鄭志仁 教師",
    "Tel": "03-522-1571",
    "href": "https://church.oursweb.net/church.php?pkey=811369",
    "Addr": "300081新竹市東區南大路430號",
    "Pos": {
      "lat": "24.7971650",
      "lng": "120.9683560"
    }
  },
  {
    "Title": "財團法人台灣省中華基督教恩霖堂",
    "Type": "教會",
    "Area": "台灣 - 新竹縣",
    "Source": "財團法人台灣省中華基督教信義會",
    "PIC": "葉輔宏 牧師",
    "Tel": "03-592-3728",
    "href": "https://church.oursweb.net/church.php?pkey=811371",
    "Addr": "307003新竹縣芎林鄉文山路304號",
    "Pos": {
      "lat": "24.7742130",
      "lng": "121.0819812"
    }
  },
  {
    "Title": "財團法人中華基督教信義會勝利堂",
    "Type": "教會",
    "Area": "台灣 - 新竹市",
    "Source": "財團法人台灣省中華基督教信義會",
    "PIC": "李易松 牧師",
    "Tel": "03-571-6803",
    "href": "https://church.oursweb.net/church.php?pkey=811374",
    "Addr": "300045新竹市東區建功一路2號",
    "Pos": {
      "lat": "24.7966880",
      "lng": "120.9984680"
    }
  },
  {
    "Title": "中華基督教信義會新生堂",
    "Type": "教會",
    "Area": "台灣 - 台北市",
    "Source": "財團法人台灣省中華基督教信義會",
    "PIC": "胡華陀",
    "Tel": "02-2737-4891",
    "href": "https://church.oursweb.net/church.php?pkey=811377",
    "Addr": "106051台北市大安區基隆路二段110號3樓",
    "Pos": {
      "lat": "25.029214",
      "lng": "121.556999"
    }
  },
  {
    "Title": "浸信會嶺東迦南教會",
    "Type": "教會",
    "Area": "台灣 - 台中市",
    "Source": "中華基督教浸信會聯會",
    "PIC": "張定松 傳道",
    "Tel": "04-2381-3473",
    "href": "https://church.oursweb.net/church.php?pkey=811381",
    "Addr": "408020台中市南屯區義芳街79號1樓",
    "Pos": {
      "lat": "24.1389658",
      "lng": "120.61168309999994"
    }
  },
  {
    "Title": "中華基督教浸信會光復堂",
    "Type": "教會",
    "Area": "台灣 - 台北市",
    "Source": "中華基督教浸信會聯會",
    "PIC": "戴義奎 牧師",
    "Tel": "02-2711-0185",
    "href": "https://church.oursweb.net/church.php?pkey=811384",
    "Addr": "106061台北市大安區光復南路280巷35號",
    "Pos": {
      "lat": "25.039722",
      "lng": "121.555894"
    }
  },
  {
    "Title": "中華循理會中山教會",
    "Type": "教會",
    "Area": "台灣 - 高雄市",
    "Source": "財團法人基督教中華循理會",
    "PIC": "袁珪玲",
    "Tel": "07-334-4049",
    "href": "https://church.oursweb.net/church.php?pkey=811387",
    "Addr": "806028高雄市前鎮區中華五路967號2樓",
    "Pos": {
      "lat": "22.6016000",
      "lng": "120.3062830"
    }
  },
  {
    "Title": "中華基督教會",
    "Type": "教會",
    "Area": "台灣 - 新北市",
    "Source": "235064新北市中和區保健路8巷11-2號",
    "PIC": "黃堅忠",
    "Tel": "02-29419240",
    "href": "https://church.oursweb.net/church.php?pkey=811390",
    "Addr": "235064新北市中和區保健路8巷11-2號",
    "Pos": {
      "lat": "24.9983440",
      "lng": "121.5079940"
    }
  },
  {
    "Title": "中華基督復興會下營教會",
    "Type": "教會",
    "Area": "台灣 - 台南市",
    "Source": "735002台南市下營區東興三街45號",
    "PIC": "簡素如 牧師",
    "Tel": "06-689-6746",
    "href": "https://church.oursweb.net/church.php?pkey=811394",
    "Addr": "735002台南市下營區東興三街45號",
    "Pos": {
      "lat": "23.2376110",
      "lng": "120.2592080"
    }
  },
  {
    "Title": "中華循理會九曲堂教會",
    "Type": "教會",
    "Area": "台灣 - 高雄市",
    "Source": "財團法人基督教中華循理會",
    "PIC": "胡明 弟兄",
    "Tel": "07-651-3710",
    "href": "https://church.oursweb.net/church.php?pkey=811398",
    "Addr": "840001高雄市大樹區久堂路湖底一巷11號",
    "Pos": {
      "lat": "22.6548338",
      "lng": "120.4178699"
    }
  },
  {
    "Title": "中華循理會下屏東教會",
    "Type": "教會",
    "Area": "台灣 - 屏東縣",
    "Source": "財團法人基督教中華循理會",
    "PIC": "王勝正",
    "Tel": "08-722-7098",
    "href": "https://church.oursweb.net/church.php?pkey=811401",
    "Addr": "900004屏東縣屏東市民生路福住巷5號",
    "Pos": {
      "lat": "22.6558442",
      "lng": "120.47032579999996"
    }
  },
  {
    "Title": "中華循理會大武教會",
    "Type": "教會",
    "Area": "台灣 - 屏東縣",
    "Source": "財團法人基督教中華循理會",
    "PIC": "柯金燕 牧師",
    "Tel": "08-799-2047",
    "href": "https://church.oursweb.net/church.php?pkey=811404",
    "Addr": "903004屏東縣瑪家鄉三和村美園巷90之1號",
    "Pos": {
      "lat": "22.6964790",
      "lng": "120.5988830"
    }
  },
  {
    "Title": "中華循理會大寮教會",
    "Type": "教會",
    "Area": "台灣 - 高雄市",
    "Source": "財團法人基督教中華循理會",
    "PIC": "殷福鴻",
    "Tel": "07-782-1961",
    "href": "https://church.oursweb.net/church.php?pkey=811406",
    "Addr": "831124高雄市大寮區鳳林三路373巷9號",
    "Pos": {
      "lat": "22.6016005",
      "lng": "120.3967078"
    }
  },
  {
    "Title": "中華循理會中崙教會",
    "Type": "教會",
    "Area": "台灣 - 高雄市",
    "Source": "財團法人基督教中華循理會",
    "PIC": "張慧清",
    "Tel": "07-753-1531",
    "href": "https://church.oursweb.net/church.php?pkey=811409",
    "Addr": "830062高雄市鳳山區凱旋路180號-1",
    "Pos": {
      "lat": "22.611576",
      "lng": "120.35135300000002"
    }
  },
  {
    "Title": "中華基督教便以利會木柵教會",
    "Type": "教會",
    "Area": "台灣 - 台北市",
    "Source": "中華基督教便以利會",
    "PIC": "董倫賢 牧師",
    "Tel": "02-2939-0544",
    "href": "https://church.oursweb.net/church.php?pkey=811380",
    "Addr": "116011台北市文山區指南路二段11號",
    "Pos": {
      "lat": "24.988482",
      "lng": "121.573315"
    }
  },
  {
    "Title": "恩光浸信會",
    "Type": "教會",
    "Area": "台灣 - 新北市",
    "Source": "中華基督教浸信會聯會",
    "PIC": "鍾金貴 牧師",
    "Tel": "02-2969-8295",
    "href": "https://church.oursweb.net/church.php?pkey=811382",
    "Addr": "220051新北市板橋區北門街61號",
    "Pos": {
      "lat": "25.011787",
      "lng": "121.455963"
    }
  },
  {
    "Title": "中華基督教彩虹堂",
    "Type": "教會",
    "Area": "台灣 - 台北市",
    "Source": "110058台北市信義區基隆路一段155號3樓之5",
    "PIC": "陳章雄",
    "Tel": "02-2746-8412",
    "href": "https://church.oursweb.net/church.php?pkey=811386",
    "Addr": "110058台北市信義區基隆路一段155號3樓之5",
    "Pos": {
      "lat": "25.042145",
      "lng": "121.565405"
    }
  },
  {
    "Title": "中華基督教景美浸信會",
    "Type": "教會",
    "Area": "台灣 - 台北市",
    "Source": "中華基督教浸信會聯會",
    "PIC": "黃主用 牧師",
    "Tel": "02-2931-4144",
    "href": "https://church.oursweb.net/church.php?pkey=811388",
    "Addr": "116053台北市文山區育英街63號",
    "Pos": {
      "lat": "24.992131",
      "lng": "121.538572"
    }
  },
  {
    "Title": "台北中華基督教會公理堂",
    "Type": "教會",
    "Area": "台灣 - 台北市",
    "Source": "tpe.ccc@msa.hinet.net",
    "PIC": "吳文雄 牧師",
    "Tel": "02-2511-8023",
    "href": "https://church.oursweb.net/church.php?pkey=811391",
    "Addr": "104010台北市中山區中山北路二段45巷39號",
    "Pos": {
      "lat": "25.054414",
      "lng": "121.525006"
    }
  },
  {
    "Title": "中華基督復興會新營教會",
    "Type": "教會",
    "Area": "台灣 - 台南市",
    "Source": "730002台南市新營區中華路136號",
    "PIC": "唐瑞樂 牧師",
    "Tel": "06-633-2440",
    "href": "https://church.oursweb.net/church.php?pkey=811395",
    "Addr": "730002台南市新營區中華路136號",
    "Pos": {
      "lat": "23.3048046",
      "lng": "120.3066126"
    }
  },
  {
    "Title": "中華循理會三和教會",
    "Type": "教會",
    "Area": "台灣 - 屏東縣",
    "Source": "財團法人基督教中華循理會",
    "PIC": "杜玉玲",
    "Tel": "08-732-8426",
    "href": "https://church.oursweb.net/church.php?pkey=811399",
    "Addr": "903004屏東縣瑪家鄉三和村美園巷90之4號",
    "Pos": {
      "lat": "22.6964790",
      "lng": "120.5988830"
    }
  },
  {
    "Title": "中華循理會土城教會",
    "Type": "教會",
    "Area": "台灣 - 新北市",
    "Source": "財團法人基督教中華循理會",
    "PIC": "郭朝信 牧師",
    "Tel": "02-2263-1578",
    "href": "https://church.oursweb.net/church.php?pkey=811403",
    "Addr": "236024新北市土城區學成路100號3樓",
    "Pos": {
      "lat": "24.989213",
      "lng": "121.45024899999999"
    }
  },
  {
    "Title": "中華循理會大雅教會（排灣）",
    "Type": "教會",
    "Area": "台灣 - 台中市",
    "Source": "財團法人基督教中華循理會",
    "PIC": "夏清章",
    "Tel": "04-2568-2560",
    "href": "https://church.oursweb.net/church.php?pkey=811405",
    "Addr": "428015台中市大雅區雅秀三路89號",
    "Pos": {
      "lat": "24.2227970",
      "lng": "120.6410780"
    }
  },
  {
    "Title": "中華循理會中心崙教會",
    "Type": "教會",
    "Area": "台灣 - 屏東縣",
    "Source": "財團法人基督教中華循理會",
    "PIC": "",
    "Tel": "08-876-1773",
    "href": "https://church.oursweb.net/church.php?pkey=811408",
    "Addr": "943011屏東縣獅子鄉獅子村3巷6號",
    "Pos": {
      "lat": "22.25293369783928",
      "lng": "120.67161569213485"
    }
  },
  {
    "Title": "中華循理會丹路教會",
    "Type": "教會",
    "Area": "台灣 - 屏東縣",
    "Source": "財團法人基督教中華循理會",
    "PIC": "楊文旭",
    "Tel": "08-877-0474",
    "href": "https://church.oursweb.net/church.php?pkey=811411",
    "Addr": "943012屏東縣獅子鄉丹路村1巷10號",
    "Pos": {
      "lat": "22.2078918",
      "lng": "120.7694760"
    }
  },
  {
    "Title": "中華循理會內獅教會",
    "Type": "教會",
    "Area": "台灣 - 屏東縣",
    "Source": "財團法人基督教中華循理會",
    "PIC": "魏花美 牧師",
    "Tel": "08-872-0610",
    "href": "https://church.oursweb.net/church.php?pkey=811413",
    "Addr": "943010屏東縣獅子鄉內獅村內獅巷20-1號",
    "Pos": {
      "lat": "22.2953019",
      "lng": "120.69928589999995"
    }
  },
  {
    "Title": "中華循理會文山教會",
    "Type": "教會",
    "Area": "台灣 - 高雄市",
    "Source": "財團法人基督教中華循理會",
    "PIC": "",
    "Tel": "07-746-9744",
    "href": "https://church.oursweb.net/church.php?pkey=811415",
    "Addr": "830006高雄市鳳山區文衡路64號",
    "Pos": {
      "lat": "22.6344510",
      "lng": "120.3586150"
    }
  },
  {
    "Title": "中華循理會台中教會",
    "Type": "教會",
    "Area": "台灣 - 台中市",
    "Source": "財團法人基督教中華循理會",
    "PIC": "裴英俊 牧師",
    "Tel": "04-2252-2038",
    "href": "https://church.oursweb.net/church.php?pkey=811417",
    "Addr": "408012台中市南屯區河南路四段190巷1號",
    "Pos": {
      "lat": "24.1553430",
      "lng": "120.6361570"
    }
  },
  {
    "Title": "基督教中華循理會台南教會",
    "Type": "教會",
    "Area": "台灣 - 台南市",
    "Source": "財團法人基督教中華循理會",
    "PIC": "陳泓霖 牧師",
    "Tel": "06-225-0687",
    "href": "https://church.oursweb.net/church.php?pkey=811419",
    "Addr": "704004台南市北區北華街170巷2號",
    "Pos": {
      "lat": "23.0008872",
      "lng": "120.2051523"
    }
  },
  {
    "Title": "中華循理會伊屯教會",
    "Type": "教會",
    "Area": "台灣 - 屏東縣",
    "Source": "財團法人基督教中華循理會",
    "PIC": "林清坤",
    "Tel": "08-877-0471",
    "href": "https://church.oursweb.net/church.php?pkey=811421",
    "Addr": "943012屏東縣獅子鄉丹路村5鄰丹路二巷12號-5",
    "Pos": {
      "lat": "22.213",
      "lng": "120.775"
    }
  },
  {
    "Title": "中華循理會好茶教會",
    "Type": "教會",
    "Area": "台灣 - 屏東縣",
    "Source": "財團法人基督教中華循理會",
    "PIC": "杜達偉 牧師",
    "Tel": "08-770-7540, 08-761-0197",
    "href": "https://church.oursweb.net/church.php?pkey=811423",
    "Addr": "902003屏東縣霧台鄉好茶村古茶柏安街15號",
    "Pos": {
      "lat": "22.6785501",
      "lng": "120.76947599999994"
    }
  },
  {
    "Title": "中華循理會竹坑教會",
    "Type": "教會",
    "Area": "台灣 - 屏東縣",
    "Source": "財團法人基督教中華循理會",
    "PIC": "李慧敏 牧師",
    "Tel": "08-877-0092",
    "href": "https://church.oursweb.net/church.php?pkey=811425",
    "Addr": "943012屏東縣獅子鄉竹坑村竹坑巷13號",
    "Pos": {
      "lat": "22.1447180",
      "lng": "120.7014620"
    }
  },
  {
    "Title": "中華循理會西屯教會",
    "Type": "教會",
    "Area": "台灣 - 台中市",
    "Source": "財團法人基督教中華循理會",
    "PIC": "姜秀華 傳道",
    "Tel": "04-2451-0543",
    "href": "https://church.oursweb.net/church.php?pkey=811427",
    "Addr": "407037台中市西屯區文華路永新巷北3弄3號",
    "Pos": {
      "lat": "24.177050008391767",
      "lng": "120.64543619444271"
    }
  },
  {
    "Title": "中華循理會佳音教會",
    "Type": "教會",
    "Area": "台灣 - 高雄市",
    "Source": "財團法人基督教中華循理會",
    "PIC": "巴學誠 牧師",
    "Tel": "07-815-2852",
    "href": "https://church.oursweb.net/church.php?pkey=811429",
    "Addr": "806030高雄市前鎮區鎮東街19號",
    "Pos": {
      "lat": "22.5927330",
      "lng": "120.3101070"
    }
  },
  {
    "Title": "中華循理會譜力姆教會",
    "Type": "教會",
    "Area": "台灣 - 屏東縣",
    "Source": "財團法人基督教中華循理會",
    "PIC": "魏花美 牧師",
    "Tel": "08-883-1456",
    "href": "https://church.oursweb.net/church.php?pkey=811410",
    "Addr": "945014屏東縣牡丹鄉中興路85號",
    "Pos": {
      "lat": "22.022087",
      "lng": "120.84370250000006"
    }
  },
  {
    "Title": "中華循理會五甲教會",
    "Type": "教會",
    "Area": "台灣 - 高雄市",
    "Source": "財團法人基督教中華循理會",
    "PIC": "郭懷恩",
    "Tel": "07-716-4842",
    "href": "https://church.oursweb.net/church.php?pkey=811412",
    "Addr": "830659高雄市鳳山區林森路279號4樓",
    "Pos": {
      "lat": "22.5960340",
      "lng": "120.3364050"
    }
  },
  {
    "Title": "中華循理會六塊厝教會",
    "Type": "教會",
    "Area": "台灣 - 屏東縣",
    "Source": "財團法人基督教中華循理會",
    "PIC": "羅遠平 牧師",
    "Tel": "08-765-9770",
    "href": "https://church.oursweb.net/church.php?pkey=811414",
    "Addr": "900008屏東縣屏東市六塊厝凌雲路77號",
    "Pos": {
      "lat": "22.6668147",
      "lng": "120.4567786"
    }
  },
  {
    "Title": "中華循理會木柵教會",
    "Type": "教會",
    "Area": "台灣 - 台北市",
    "Source": "財團法人基督教中華循理會",
    "PIC": "歐紹英 牧師",
    "Tel": "02-2939-1654",
    "href": "https://church.oursweb.net/church.php?pkey=811416",
    "Addr": "116017台北市文山區木新路二段111巷9號2樓",
    "Pos": {
      "lat": "24.983984",
      "lng": "121.570375"
    }
  },
  {
    "Title": "中華循理會台東教會",
    "Type": "教會",
    "Area": "台灣 - 台東縣",
    "Source": "財團法人基督教中華循理會",
    "PIC": "尤宗賢 牧師",
    "Tel": "089-38-2986",
    "href": "https://church.oursweb.net/church.php?pkey=811418",
    "Addr": "954027台東縣卑南鄉東興村東園一街115巷27號",
    "Pos": {
      "lat": "22.7640449",
      "lng": "121.0432811"
    }
  },
  {
    "Title": "中華基督教循理會永和教會",
    "Type": "教會",
    "Area": "台灣 - 新北市",
    "Source": "財團法人基督教中華循理會",
    "PIC": "高曉蓉",
    "Tel": "02-2942-4440",
    "href": "https://church.oursweb.net/church.php?pkey=811420",
    "Addr": "234040新北市永和區民權路29巷14號",
    "Pos": {
      "lat": "24.9978800",
      "lng": "121.5208320"
    }
  },
  {
    "Title": "中華吉露教會",
    "Type": "教會",
    "Area": "台灣 - 屏東縣",
    "Source": "財團法人基督教中華循理會",
    "PIC": "柯彩貞",
    "Tel": "08-7651031",
    "href": "https://church.oursweb.net/church.php?pkey=811422",
    "Addr": "903004屏東縣瑪家鄉三和村美園巷61號",
    "Pos": {
      "lat": "22.701422",
      "lng": "120.60416800000007"
    }
  },
  {
    "Title": "中華循理會安康教會",
    "Type": "教會",
    "Area": "台灣 - 新北市",
    "Source": "財團法人基督教中華循理會",
    "PIC": "羅仕淦",
    "Tel": "02-8666-3634",
    "href": "https://church.oursweb.net/church.php?pkey=811424",
    "Addr": "231060新北市新店區碧安街4號1樓",
    "Pos": {
      "lat": "24.9675866",
      "lng": "121.51730780000003"
    }
  },
  {
    "Title": "中華循理會自強教會",
    "Type": "教會",
    "Area": "台灣 - 高雄市",
    "Source": "財團法人基督教中華循理會",
    "PIC": "程國倫 牧師",
    "Tel": "07-969-6007",
    "href": "https://church.oursweb.net/church.php?pkey=811426",
    "Addr": "801009高雄市前金區自強一路36號3.4樓",
    "Pos": {
      "lat": "22.6299340",
      "lng": "120.2937140"
    }
  },
  {
    "Title": "中華循理會牡丹教會",
    "Type": "教會",
    "Area": "台灣 - 屏東縣",
    "Source": "財團法人基督教中華循理會",
    "PIC": "魏花美",
    "Tel": "08-883-0277",
    "href": "https://church.oursweb.net/church.php?pkey=811428",
    "Addr": "945014屏東縣牡丹鄉牡丹村147號",
    "Pos": {
      "lat": "22.1769243",
      "lng": "120.8154358"
    }
  },
  {
    "Title": "中華循理會忠勇教會",
    "Type": "教會",
    "Area": "台灣 - 台北市",
    "Source": "財團法人基督教中華循理會",
    "PIC": "葉茂堂 牧師",
    "Tel": "02-2831-7356",
    "href": "https://church.oursweb.net/church.php?pkey=811431",
    "Addr": "111007台北市士林區雨農路21巷16-1號",
    "Pos": {
      "lat": "25.098082",
      "lng": "121.5314"
    }
  },
  {
    "Title": "中華循理會果貿教會",
    "Type": "教會",
    "Area": "台灣 - 高雄市",
    "Source": "財團法人基督教中華循理會",
    "PIC": "蔡耀慶",
    "Tel": "07-553-1272",
    "href": "https://church.oursweb.net/church.php?pkey=811433",
    "Addr": "804060高雄市鼓山區明倫路118號",
    "Pos": {
      "lat": "22.6664684",
      "lng": "120.2979529"
    }
  },
  {
    "Title": "中華循理會前庄教會",
    "Type": "教會",
    "Area": "台灣 - 高雄市",
    "Source": "財團法人基督教中華循理會",
    "PIC": "張嘉夫 牧師",
    "Tel": "07-702-0999",
    "href": "https://church.oursweb.net/church.php?pkey=811435",
    "Addr": "830011高雄市鳳山區勝利路9號",
    "Pos": {
      "lat": "22.6298820",
      "lng": "120.3733750"
    }
  },
  {
    "Title": "基督教中華循理會南三和教會",
    "Type": "教會",
    "Area": "台灣 - 屏東縣",
    "Source": "tamautungu7993402@kimo.com",
    "PIC": "杜達偉 牧師",
    "Tel": "08-799-3402",
    "href": "https://church.oursweb.net/church.php?pkey=811437",
    "Addr": "903004屏東縣瑪家鄉三和村美園巷90-4號",
    "Pos": {
      "lat": "22.696491",
      "lng": "120.598882"
    }
  },
  {
    "Title": "中華循理會桃園教會",
    "Type": "教會",
    "Area": "台灣 - 桃園市",
    "Source": "330049桃園市桃園區長安街26巷9號1樓",
    "PIC": "林振華",
    "Tel": "03-3775683",
    "href": "https://church.oursweb.net/church.php?pkey=811439",
    "Addr": "330049桃園市桃園區長安街26巷9號1樓",
    "Pos": {
      "lat": "24.9886779",
      "lng": "121.316196"
    }
  },
  {
    "Title": "中華循理會草埔教會",
    "Type": "教會",
    "Area": "台灣 - 屏東縣",
    "Source": "財團法人基督教中華循理會",
    "PIC": "張立慧",
    "Tel": "08-870-1226",
    "href": "https://church.oursweb.net/church.php?pkey=811441",
    "Addr": "943013屏東縣獅子鄉草埔村草埔7巷7之3號",
    "Pos": {
      "lat": "22.23412413877502",
      "lng": "120.8008873472213"
    }
  },
  {
    "Title": "中華循理會商協教會",
    "Type": "教會",
    "Area": "台灣 - 高雄市",
    "Source": "財團法人基督教中華循理會",
    "PIC": "陳應中 牧師",
    "Tel": "07-781-7415",
    "href": "https://church.oursweb.net/church.php?pkey=811443",
    "Addr": "831124高雄市大寮區水源路51巷24號",
    "Pos": {
      "lat": "22.6112810",
      "lng": "120.3892680"
    }
  },
  {
    "Title": "基督教中華循理會新莊教會",
    "Type": "教會",
    "Area": "台灣 - 新北市",
    "Source": "財團法人基督教中華循理會",
    "PIC": "方秀玉 牧師",
    "Tel": "02-2993-2973",
    "href": "https://church.oursweb.net/church.php?pkey=811445",
    "Addr": "242022新北市新莊區幸福路64巷3弄2-1號",
    "Pos": {
      "lat": "25.05000409900757",
      "lng": "121.45701433925211"
    }
  },
  {
    "Title": "中華循理會楓林教會",
    "Type": "教會",
    "Area": "台灣 - 屏東縣",
    "Source": "財團法人基督教中華循理會",
    "PIC": "薛勇生",
    "Tel": "08-877-1003",
    "href": "https://church.oursweb.net/church.php?pkey=811447",
    "Addr": "943012屏東縣獅子鄉楓林村5鄰楓林2巷14之2號",
    "Pos": {
      "lat": "22.1919092",
      "lng": "120.7177509"
    }
  },
  {
    "Title": "中華循理會鳳山教會",
    "Type": "教會",
    "Area": "台灣 - 高雄市",
    "Source": "財團法人基督教中華循理會",
    "PIC": "張靜蕙",
    "Tel": "07-746-2086",
    "href": "https://church.oursweb.net/church.php?pkey=811449",
    "Addr": "830026高雄市鳳山區中山路70巷20號",
    "Pos": {
      "lat": "22.6224340",
      "lng": "120.3600140"
    }
  },
  {
    "Title": "中華循理會和平教會",
    "Type": "教會",
    "Area": "台灣 - 屏東縣",
    "Source": "財團法人基督教中華循理會",
    "PIC": "宋德福",
    "Tel": "08-876-1857",
    "href": "https://church.oursweb.net/church.php?pkey=811430",
    "Addr": "943012屏東縣獅子鄉和平村獅子一巷26號之1",
    "Pos": {
      "lat": "22.232834",
      "lng": "120.68342600000005"
    }
  },
  {
    "Title": "中華循理會忠義教會",
    "Type": "教會",
    "Area": "台灣 - 高雄市",
    "Source": "財團法人基督教中華循理會",
    "PIC": "袁瑞娜 牧師",
    "Tel": "07-741-2622",
    "href": "https://church.oursweb.net/church.php?pkey=811432",
    "Addr": "830031高雄市鳳山區中和街129號",
    "Pos": {
      "lat": "22.6264790",
      "lng": "120.3511500"
    }
  },
  {
    "Title": "中華循理會阿禮教會",
    "Type": "教會",
    "Area": "台灣 - 屏東縣",
    "Source": "財團法人基督教中華循理會",
    "PIC": "杜明發 牧師",
    "Tel": "08-761-6379",
    "href": "https://church.oursweb.net/church.php?pkey=811434",
    "Addr": "902005屏東縣霧台鄉阿禮村百合路290號",
    "Pos": {
      "lat": "22.7509887",
      "lng": "120.78096759999994"
    }
  },
  {
    "Title": "中華循理會前鋒教會",
    "Type": "教會",
    "Area": "台灣 - 高雄市",
    "Source": "財團法人基督教中華循理會",
    "PIC": "林惠珍",
    "Tel": "07-552-0634",
    "href": "https://church.oursweb.net/church.php?pkey=811436",
    "Addr": "804063高雄市鼓山區中華一路63號4樓",
    "Pos": {
      "lat": "22.6673800",
      "lng": "120.2902940"
    }
  },
  {
    "Title": "中華循理會屏東教會",
    "Type": "教會",
    "Area": "台灣 - 屏東縣",
    "Source": "財團法人基督教中華循理會",
    "PIC": "吳吉民 傳道",
    "Tel": "08-733-6401",
    "href": "https://church.oursweb.net/church.php?pkey=811438",
    "Addr": "900007屏東縣屏東市忠孝路89號",
    "Pos": {
      "lat": "22.6736030",
      "lng": "120.4843300"
    }
  },
  {
    "Title": "中華循理會海光教會",
    "Type": "教會",
    "Area": "台灣 - 高雄市",
    "Source": "財團法人基督教中華循理會",
    "PIC": "林正義",
    "Tel": "07-341-9103",
    "href": "https://church.oursweb.net/church.php?pkey=811440",
    "Addr": "813557高雄市左營區大中二路626號3樓",
    "Pos": {
      "lat": "22.684636",
      "lng": "120.30695000000003"
    }
  },
  {
    "Title": "中華循理會高雄教會",
    "Type": "教會",
    "Area": "台灣 - 高雄市",
    "Source": "財團法人基督教中華循理會",
    "PIC": "鄭穎宗 牧師",
    "Tel": "07-286-6555",
    "href": "https://church.oursweb.net/church.php?pkey=811442",
    "Addr": "800054高雄市新興區河南二路1號",
    "Pos": {
      "lat": "22.6365830",
      "lng": "120.3015950"
    }
  },
  {
    "Title": "中華循理會新竹教會",
    "Type": "教會",
    "Area": "台灣 - 新竹市",
    "Source": "財團法人基督教中華循理會",
    "PIC": "趙桂君",
    "Tel": "03-562-2060",
    "href": "https://church.oursweb.net/church.php?pkey=811444",
    "Addr": "300031新竹市東區南大路48號7樓-1",
    "Pos": {
      "lat": "24.802804",
      "lng": "120.97785109999995"
    }
  },
  {
    "Title": "中華循理會新路教會",
    "Type": "教會",
    "Area": "台灣 - 屏東縣",
    "Source": "財團法人基督教中華循理會",
    "PIC": "黃惠梅 牧師",
    "Tel": "08-877-0816",
    "href": "https://church.oursweb.net/church.php?pkey=811446",
    "Addr": "943012屏東縣獅子鄉楓林四巷24之5號",
    "Pos": {
      "lat": "22.2050303",
      "lng": "120.72243530000003"
    }
  },
  {
    "Title": "中華循理會萬山教會",
    "Type": "教會",
    "Area": "台灣 - 高雄市",
    "Source": "財團法人基督教中華循理會",
    "PIC": "唐威",
    "Tel": "07-680-1011",
    "href": "https://church.oursweb.net/church.php?pkey=811448",
    "Addr": "851001高雄市茂林區萬山村105-1號",
    "Pos": {
      "lat": "22.9376188",
      "lng": "120.68325559999994"
    }
  },
  {
    "Title": "中華循理會龍泉教會",
    "Type": "教會",
    "Area": "台灣 - 屏東縣",
    "Source": "財團法人基督教中華循理會",
    "PIC": "黃永花",
    "Tel": "08-770-0964",
    "href": "https://church.oursweb.net/church.php?pkey=811451",
    "Addr": "912011屏東縣內埔鄉龍泉村昭勝路198號",
    "Pos": {
      "lat": "22.6731510",
      "lng": "120.6006000"
    }
  },
  {
    "Title": "中華循理會雙流教會",
    "Type": "教會",
    "Area": "台灣 - 屏東縣",
    "Source": "財團法人基督教中華循理會",
    "PIC": "林新香",
    "Tel": "08-870-1008",
    "href": "https://church.oursweb.net/church.php?pkey=811453",
    "Addr": "943012屏東縣獅子鄉草埔村草埔6巷19號",
    "Pos": {
      "lat": "22.222258230629706",
      "lng": "120.796171661377"
    }
  },
  {
    "Title": "基督教中華傳道會天恩堂",
    "Type": "教會",
    "Area": "台灣 - 台北市",
    "Source": "tapei.grace@msa.hinet.net",
    "PIC": "李寶珠",
    "Tel": "02-2303-7180",
    "href": "https://church.oursweb.net/church.php?pkey=811455",
    "Addr": "100063台北市中正區中華路二段315巷29號",
    "Pos": {
      "lat": "25.0285309",
      "lng": "121.50691200000006"
    }
  },
  {
    "Title": "基督教大湳禮拜堂",
    "Type": "教會",
    "Area": "台灣 - 桃園市",
    "Source": "334020桃園市八德區福國北街200號",
    "PIC": "林競生 牧師",
    "Tel": "03-367-5944",
    "href": "https://church.oursweb.net/church.php?pkey=811457",
    "Addr": "334020桃園市八德區福國北街200號",
    "Pos": {
      "lat": "24.9626120",
      "lng": "121.2963980"
    }
  },
  {
    "Title": "中華聖召會基督教山仔教會",
    "Type": "教會",
    "Area": "台灣 - 桃園市",
    "Source": "324021桃園市平鎮區湧光路31號2樓",
    "PIC": "張嘉道",
    "Tel": "03-469-0131",
    "href": "https://church.oursweb.net/church.php?pkey=811459",
    "Addr": "324021桃園市平鎮區湧光路31號2樓",
    "Pos": {
      "lat": "24.8984603",
      "lng": "121.2104448"
    }
  },
  {
    "Title": "基督教中華聖潔會北埔教會",
    "Type": "教會",
    "Area": "台灣 - 新竹縣",
    "Source": "財團法人基督教中華聖潔會",
    "PIC": "詹智華",
    "Tel": "0971-779-712",
    "href": "https://church.oursweb.net/church.php?pkey=811461",
    "Addr": "314001新竹縣北埔鄉城門街46號",
    "Pos": {
      "lat": "24.6991190",
      "lng": "121.0558790"
    }
  },
  {
    "Title": "中華聖潔會佳音教會",
    "Type": "教會",
    "Area": "台灣 - 新竹市",
    "Source": "財團法人基督教中華聖潔會",
    "PIC": "白自國 牧師",
    "Tel": "03-524-1303",
    "href": "https://church.oursweb.net/church.php?pkey=811465",
    "Addr": "300033新竹市東區東南街167巷1號",
    "Pos": {
      "lat": "24.7985240",
      "lng": "120.9760440"
    }
  },
  {
    "Title": "基督教中華聖潔會新竹教會",
    "Type": "教會",
    "Area": "台灣 - 新竹市",
    "Source": "財團法人基督教中華聖潔會",
    "PIC": "賀雅文 牧師",
    "Tel": "03-524-4061",
    "href": "https://church.oursweb.net/church.php?pkey=811468",
    "Addr": "300022新竹市北區延平路一段123號",
    "Pos": {
      "lat": "24.8041699",
      "lng": "120.9575203"
    }
  },
  {
    "Title": "中華聖潔會新豐教會新豐堂",
    "Type": "教會",
    "Area": "台灣 - 新竹縣",
    "Source": "財團法人基督教中華聖潔會",
    "PIC": "劉修泉 牧師",
    "Tel": "03-559-1898",
    "href": "https://church.oursweb.net/church.php?pkey=811471",
    "Addr": "304109新竹縣新豐鄉建興路一段45號",
    "Pos": {
      "lat": "24.8711740",
      "lng": "120.9953833"
    }
  },
  {
    "Title": "中華聖潔會關西教會",
    "Type": "教會",
    "Area": "台灣 - 新竹縣",
    "Source": "財團法人基督教中華聖潔會",
    "PIC": "孫秀琴 傳道",
    "Tel": "03-587-2773",
    "href": "https://church.oursweb.net/church.php?pkey=811473",
    "Addr": "306003新竹縣關西鎮中山東路179號",
    "Pos": {
      "lat": "24.7882810",
      "lng": "121.1858400"
    }
  },
  {
    "Title": "中華循理會興隆教會",
    "Type": "教會",
    "Area": "台灣 - 台北市",
    "Source": "財團法人基督教中華循理會",
    "PIC": "周哲昌 牧師",
    "Tel": "02-2932-8278",
    "href": "https://church.oursweb.net/church.php?pkey=811450",
    "Addr": "116071台北市文山區興隆路二段217巷2弄1號",
    "Pos": {
      "lat": "25.001549",
      "lng": "121.550028"
    }
  },
  {
    "Title": "中華循理會龍潭教會",
    "Type": "教會",
    "Area": "台灣 - 桃園市",
    "Source": "財團法人基督教中華循理會",
    "PIC": "蔡良志 牧師",
    "Tel": "03-489-3749",
    "href": "https://church.oursweb.net/church.php?pkey=811452",
    "Addr": "325026桃園市龍潭區中興路363巷27弄8號",
    "Pos": {
      "lat": "24.8724520",
      "lng": "121.2321300"
    }
  },
  {
    "Title": "中華傳道會天恩佈道所",
    "Type": "教會",
    "Area": "台灣 - 新北市",
    "Source": "236019新北市土城區學府路1段98巷15號3樓",
    "PIC": "劉錫安",
    "Tel": "02-22644793",
    "href": "https://church.oursweb.net/church.php?pkey=811454",
    "Addr": "236019新北市土城區學府路1段98巷15號3樓",
    "Pos": {
      "lat": "24.9886050",
      "lng": "121.4556820"
    }
  },
  {
    "Title": "中華傳道會鳳山聖恩堂",
    "Type": "教會",
    "Area": "台灣 - 高雄市",
    "Source": "hoseph@ms11.hinet.net",
    "PIC": "王偉齡",
    "Tel": "07-701-3691",
    "href": "https://church.oursweb.net/church.php?pkey=811456",
    "Addr": "830011高雄市鳳山區建國路一段53巷2弄80號",
    "Pos": {
      "lat": "22.6351259",
      "lng": "120.3743817"
    }
  },
  {
    "Title": "基督教內城聖召會",
    "Type": "教會",
    "Area": "台灣 - 宜蘭縣",
    "Source": "eunice463@yahoo.com.tw",
    "PIC": "劉桂子 傳道",
    "Tel": "03-923-1952",
    "href": "https://church.oursweb.net/church.php?pkey=811458",
    "Addr": "264018宜蘭縣員山鄉內城路463號",
    "Pos": {
      "lat": "24.7204930",
      "lng": "121.6889610"
    }
  },
  {
    "Title": "基督教聖召會頭城福音中心",
    "Type": "教會",
    "Area": "台灣 - 宜蘭縣",
    "Source": "https://www.facebook.com/376235555855/",
    "PIC": "陳長老",
    "Tel": "03-977-1488",
    "href": "https://church.oursweb.net/church.php?pkey=811460",
    "Addr": "261003宜蘭縣頭城鎮東興街106號",
    "Pos": {
      "lat": "24.8557830",
      "lng": "121.8248650"
    }
  },
  {
    "Title": "中華聖潔會竹北教會",
    "Type": "教會",
    "Area": "台灣 - 新竹縣",
    "Source": "財團法人基督教中華聖潔會",
    "PIC": "鄧欽志",
    "Tel": "03-588-9828",
    "href": "https://church.oursweb.net/church.php?pkey=811464",
    "Addr": "305043新竹縣新埔鎮褒忠路87號",
    "Pos": {
      "lat": "24.7372223",
      "lng": "121.0869376"
    }
  },
  {
    "Title": "中華聖潔會板橋教會",
    "Type": "教會",
    "Area": "台灣 - 新北市",
    "Source": "財團法人基督教中華聖潔會",
    "PIC": "金尚會",
    "Tel": "02-2256-2024",
    "href": "https://church.oursweb.net/church.php?pkey=811466",
    "Addr": "220014新北市板橋區陽明街164巷10弄6號",
    "Pos": {
      "lat": "25.024236",
      "lng": "121.463867"
    }
  },
  {
    "Title": "中華聖潔會新埔教會",
    "Type": "教會",
    "Area": "台灣 - 新竹縣",
    "Source": "財團法人基督教中華聖潔會",
    "PIC": "徐蘭勝 牧師",
    "Tel": "03-588-3196",
    "href": "https://church.oursweb.net/church.php?pkey=811470",
    "Addr": "305041新竹縣新埔鎮義民路一段20號",
    "Pos": {
      "lat": "24.8282030",
      "lng": "121.0695270"
    }
  },
  {
    "Title": "中華聖潔會鳳山村教會",
    "Type": "教會",
    "Area": "台灣 - 新竹縣",
    "Source": "財團法人基督教中華聖潔會",
    "PIC": "蘇秀娟 教師",
    "Tel": "03-597-6906",
    "href": "https://church.oursweb.net/church.php?pkey=811472",
    "Addr": "303102新竹縣湖口鄉鳳山村勝利路二段219號",
    "Pos": {
      "lat": "24.8595020",
      "lng": "121.0212960"
    }
  },
  {
    "Title": "台灣基督長老教會中華路教會",
    "Type": "教會",
    "Area": "台灣 - 台南市",
    "Source": "台灣基督長老教會總會事務所",
    "PIC": "",
    "Tel": "06-233-7471",
    "href": "https://church.oursweb.net/church.php?pkey=811475",
    "Addr": "710017台南市永康區六合路58巷2號",
    "Pos": {
      "lat": "23.0103760",
      "lng": "120.2315400"
    }
  },
  {
    "Title": "中華福音信義會加恩堂",
    "Type": "教會",
    "Area": "台灣 - 台中市",
    "Source": "406048台中市北屯區豐樂路17之1號",
    "PIC": "王素真 牧師",
    "Tel": "04-2422-8947",
    "href": "https://church.oursweb.net/church.php?pkey=811477",
    "Addr": "406048台中市北屯區豐樂路17之1號",
    "Pos": {
      "lat": "24.1936030",
      "lng": "120.6875740"
    }
  },
  {
    "Title": "中華福音信義會施恩堂",
    "Type": "教會",
    "Area": "台灣 - 台中市",
    "Source": "財團法人中華基督教福音信義會",
    "PIC": "孫武根",
    "Tel": "04-2587-4100",
    "href": "https://church.oursweb.net/church.php?pkey=811479",
    "Addr": "423004台中市東勢區東崎路五段425號",
    "Pos": {
      "lat": "24.2510747",
      "lng": "120.83671460000005"
    }
  },
  {
    "Title": "中華基督教福音信義會豐恩堂",
    "Type": "教會",
    "Area": "台灣 - 台中市",
    "Source": "財團法人中華基督教福音信義會",
    "PIC": "劉獻瑞 牧師",
    "Tel": "04-2525-7272",
    "href": "https://church.oursweb.net/church.php?pkey=811482",
    "Addr": "420016台中市豐原區中正路543號4樓",
    "Pos": {
      "lat": "24.2499780",
      "lng": "120.7098210"
    }
  },
  {
    "Title": "中華福音路德會高雄佈道所",
    "Type": "教會",
    "Area": "台灣 - 高雄市",
    "Source": "財團法人中華福音道路德會",
    "PIC": "廖海全 牧師",
    "Tel": "07-831-7763",
    "href": "https://church.oursweb.net/church.php?pkey=811486",
    "Addr": "831126高雄市大寮區進學路166巷47號",
    "Pos": {
      "lat": "22.6044640",
      "lng": "120.3921130"
    }
  },
  {
    "Title": "中華福音道路德會斗六靈恩堂",
    "Type": "教會",
    "Area": "台灣 - 雲林縣",
    "Source": "財團法人中華福音道路德會",
    "PIC": "朱伯江 傳道",
    "Tel": "05-532-1370",
    "href": "https://church.oursweb.net/church.php?pkey=811489",
    "Addr": "640004雲林縣斗六市城頂街98號",
    "Pos": {
      "lat": "23.7073367",
      "lng": "120.5417460"
    }
  },
  {
    "Title": "財團法人台北市基督教中華福音道路德會永生堂",
    "Type": "教會",
    "Area": "台灣 - 台北市",
    "Source": "財團法人中華福音道路德會",
    "PIC": "苗其華 牧師",
    "Tel": "02-2351-4093",
    "href": "https://church.oursweb.net/church.php?pkey=811491",
    "Addr": "100030台北市中正區潮州街16號",
    "Pos": {
      "lat": "25.029554",
      "lng": "121.521336"
    }
  },
  {
    "Title": "中華福音道路德會安中教會",
    "Type": "教會",
    "Area": "台灣 - 台南市",
    "Source": "財團法人中華福音道路德會",
    "PIC": "李如惠 傳道",
    "Tel": "06-246-0460",
    "href": "https://church.oursweb.net/church.php?pkey=811494",
    "Addr": "709003台南市安南區安中路一段700巷44號",
    "Pos": {
      "lat": "23.0428290",
      "lng": "120.1977170"
    }
  },
  {
    "Title": "中華福音道路德會信望愛教會",
    "Type": "教會",
    "Area": "台灣 - 台南市",
    "Source": "財團法人中華福音道路德會",
    "PIC": "",
    "Tel": "06-256-8645",
    "href": "https://church.oursweb.net/church.php?pkey=811497",
    "Addr": "710029台南市永康區中華路10巷16-2號2樓",
    "Pos": {
      "lat": "22.9997415",
      "lng": "120.23579719999998"
    }
  },
  {
    "Title": "中華福音道路德會迦南堂",
    "Type": "教會",
    "Area": "台灣 - 台北市",
    "Source": "財團法人中華福音道路德會",
    "PIC": "宣仁揚",
    "Tel": "02-2571-2930",
    "href": "https://church.oursweb.net/church.php?pkey=811499",
    "Addr": "104090台北市中山區松江路38巷15-5號",
    "Pos": {
      "lat": "25.047697",
      "lng": "121.531824"
    }
  },
  {
    "Title": "中華聖潔會關東橋教會",
    "Type": "教會",
    "Area": "台灣 - 新竹市",
    "Source": "財團法人基督教中華聖潔會",
    "PIC": "陳正賢 牧師",
    "Tel": "03-577-6384",
    "href": "https://church.oursweb.net/church.php?pkey=811474",
    "Addr": "300072新竹市東區關東路23巷29號",
    "Pos": {
      "lat": "24.7826214",
      "lng": "121.0219355"
    }
  },
  {
    "Title": "中華福音信義會主恩堂",
    "Type": "教會",
    "Area": "台灣 - 台中市",
    "Source": "財團法人中華基督教福音信義會",
    "PIC": "胡秀雲",
    "Tel": "04-2556-0007",
    "href": "https://church.oursweb.net/church.php?pkey=811476",
    "Addr": "421013台中市后里區柑宅路27號",
    "Pos": {
      "lat": "24.3085691",
      "lng": "120.7189252"
    }
  },
  {
    "Title": "中華福音信義會沐恩堂",
    "Type": "教會",
    "Area": "台灣 - 台中市",
    "Source": "財團法人中華基督教福音信義會",
    "PIC": "沈瑞蘭",
    "Tel": "04-2392-9413",
    "href": "https://church.oursweb.net/church.php?pkey=811478",
    "Addr": "411030台中市太平區中山路二段311巷2弄6號",
    "Pos": {
      "lat": "24.149911",
      "lng": "120.73045"
    }
  },
  {
    "Title": "中華福音信義會中嵙頌恩堂",
    "Type": "教會",
    "Area": "台灣 - 台中市",
    "Source": "財團法人中華基督教福音信義會",
    "PIC": "吳進春",
    "Tel": "04-2588-5726",
    "href": "https://church.oursweb.net/church.php?pkey=811481",
    "Addr": "423009台中市東勢區東崎路四段115號",
    "Pos": {
      "lat": "24.2563023",
      "lng": "120.8514672"
    }
  },
  {
    "Title": "基督教中華福音會",
    "Type": "教會",
    "Area": "台灣 - 新北市",
    "Source": "job171001@gmail.com",
    "PIC": "皇甫仰禮 牧師",
    "Tel": "02-2252-0500",
    "href": "https://church.oursweb.net/church.php?pkey=811484",
    "Addr": "220440新北市板橋區莊敬路220巷43號1樓",
    "Pos": {
      "lat": "25.020423",
      "lng": "121.472818"
    }
  },
  {
    "Title": "中華福音道路德會仁愛堂",
    "Type": "教會",
    "Area": "台灣 - 桃園市",
    "Source": "財團法人中華福音道路德會",
    "PIC": "宜約堂",
    "Tel": "03-333-9996",
    "href": "https://church.oursweb.net/church.php?pkey=811487",
    "Addr": "330026桃園市桃園區縣府路110號14樓",
    "Pos": {
      "lat": "24.9943340",
      "lng": "121.3025380"
    }
  },
  {
    "Title": "財團法人中華福音道路德會台中聖恩堂",
    "Type": "教會",
    "Area": "台灣 - 台中市",
    "Source": "財團法人中華福音道路德會",
    "PIC": "璩雅倫",
    "Tel": "04-2238-2225",
    "href": "https://church.oursweb.net/church.php?pkey=811490",
    "Addr": "406505台中市北屯區文心路四段938-1號2F",
    "Pos": {
      "lat": "24.170747",
      "lng": "120.69461000000001"
    }
  },
  {
    "Title": "財團法人中華福音道路德會生命堂",
    "Type": "教會",
    "Area": "台灣 - 台南市",
    "Source": "701010台南市東區大同路2段51號7樓",
    "PIC": "暫無",
    "Tel": "06-2691780",
    "href": "https://church.oursweb.net/church.php?pkey=811493",
    "Addr": "701010台南市東區大同路2段51號7樓",
    "Pos": {
      "lat": "22.9720210",
      "lng": "120.2160240"
    }
  },
  {
    "Title": "中華福音道路德會和平堂",
    "Type": "教會",
    "Area": "台灣 - 新北市",
    "Source": "財團法人中華福音道路德會",
    "PIC": "柯俊字 牧師",
    "Tel": "02-2968-8148",
    "href": "https://church.oursweb.net/church.php?pkey=811495",
    "Addr": "220045新北市板橋區民權路202巷17弄70號2樓",
    "Pos": {
      "lat": "25.016488",
      "lng": "121.458189"
    }
  },
  {
    "Title": "財團法人中華福音道路德會施恩堂",
    "Type": "教會",
    "Area": "台灣 - 嘉義市",
    "Source": "財團法人中華福音道路德會",
    "PIC": "趙世輝",
    "Tel": "05-227-1308",
    "href": "https://church.oursweb.net/church.php?pkey=811498",
    "Addr": "600011嘉義市東區延平街140之1號",
    "Pos": {
      "lat": "23.4770034",
      "lng": "120.4525047"
    }
  },
  {
    "Title": "財團法人中華福音道路德會新莊教會",
    "Type": "教會",
    "Area": "台灣 - 新北市",
    "Source": "財團法人中華福音道路德會",
    "PIC": "王茂雄 牧師",
    "Tel": "02-2990-3390",
    "href": "https://church.oursweb.net/church.php?pkey=811506",
    "Addr": "242012新北市新莊區民生街15巷2弄5號",
    "Pos": {
      "lat": "25.0425170",
      "lng": "121.4558830"
    }
  },
  {
    "Title": "中華福音道路德會台南市頌恩堂",
    "Type": "教會",
    "Area": "台灣 - 台南市",
    "Source": "財團法人中華福音道路德會",
    "PIC": "王鎮濤 牧師",
    "Tel": "06-251-6108",
    "href": "https://church.oursweb.net/church.php?pkey=811508",
    "Addr": "704021台南市北區實踐街39巷57號",
    "Pos": {
      "lat": "23.0157321",
      "lng": "120.2187498"
    }
  },
  {
    "Title": "中華聾人基督教會",
    "Type": "教會",
    "Area": "台灣 - 台北市",
    "Source": "103008台北市大同區重慶北路二段72號6樓",
    "PIC": "葉永和 牧師",
    "Tel": "02-2303-4716",
    "href": "https://church.oursweb.net/church.php?pkey=811512",
    "Addr": "103008台北市大同區重慶北路二段72號6樓",
    "Pos": {
      "lat": "25.056114",
      "lng": "121.513773"
    }
  },
  {
    "Title": "台灣基督長老教會中寮教會",
    "Type": "教會",
    "Area": "台灣 - 南投縣",
    "Source": "台灣基督長老教會總會事務所",
    "PIC": "林庭樂 牧師",
    "Tel": "049-269-1617",
    "href": "https://church.oursweb.net/church.php?pkey=811514",
    "Addr": "541016南投縣中寮鄉永平路261號",
    "Pos": {
      "lat": "23.8789769",
      "lng": "120.7653176"
    }
  },
  {
    "Title": "台灣基督長老教會中興教會（布中）",
    "Type": "教會",
    "Area": "台灣 - 花蓮縣",
    "Source": "台灣基督長老教會總會事務所",
    "PIC": "高信榮 牧師",
    "Tel": "03-888-7110, 03-888-4224",
    "href": "https://church.oursweb.net/church.php?pkey=811516",
    "Addr": "982009花蓮縣卓溪鄉太平村中興13鄰62號",
    "Pos": {
      "lat": "23.389105",
      "lng": "121.299895"
    }
  },
  {
    "Title": "台灣基督長老教會中興教會（美中）",
    "Type": "教會",
    "Area": "台灣 - 花蓮縣",
    "Source": "台灣基督長老教會總會事務所",
    "PIC": "張文祥 傳道師",
    "Tel": "03-874-1159",
    "href": "https://church.oursweb.net/church.php?pkey=811518",
    "Addr": "975006花蓮縣鳳林鎮山興里中興路76號",
    "Pos": {
      "lat": "23.7566350",
      "lng": "121.4984790"
    }
  },
  {
    "Title": "花蓮中興教會",
    "Type": "教會",
    "Area": "台灣 - 花蓮縣",
    "Source": "973042花蓮縣吉安鄉吉安村中興路214巷20號",
    "PIC": "",
    "Tel": "03-8522208",
    "href": "https://church.oursweb.net/church.php?pkey=811520",
    "Addr": "973042花蓮縣吉安鄉吉安村中興路214巷20號",
    "Pos": {
      "lat": "23.9727500",
      "lng": "121.5687700"
    }
  },
  {
    "Title": "基督教中興錫安堂",
    "Type": "教會",
    "Area": "台灣 - 新北市",
    "Source": "http://www.zxzcc.org",
    "PIC": "謝清傑 牧師",
    "Tel": "02-8923-3229",
    "href": "https://church.oursweb.net/church.php?pkey=811523",
    "Addr": "234022新北市永和區大新街45巷3號1樓",
    "Pos": {
      "lat": "25.0087180",
      "lng": "121.5158380"
    }
  },
  {
    "Title": "中壢佳音基督教會",
    "Type": "教會",
    "Area": "台灣 - 桃園市",
    "Source": "中華民國基督教佳音宣教協會",
    "PIC": "買良助",
    "Tel": "03-494-0945",
    "href": "https://church.oursweb.net/church.php?pkey=811526",
    "Addr": "324008桃園市平鎮區環南路66巷17弄2號",
    "Pos": {
      "lat": "24.9545759",
      "lng": "121.2068096"
    }
  },
  {
    "Title": "中壢浸信會",
    "Type": "教會",
    "Area": "台灣 - 桃園市",
    "Source": "中華基督教浸信會聯會",
    "PIC": "",
    "Tel": "03-493-4764",
    "href": "https://church.oursweb.net/church.php?pkey=811529",
    "Addr": "320005桃園市中壢區民族路53號",
    "Pos": {
      "lat": "24.955582",
      "lng": "121.21390900000006"
    }
  },
  {
    "Title": "財團法人中華福音道路德會救恩堂",
    "Type": "教會",
    "Area": "台灣 - 嘉義市",
    "Source": "財團法人中華福音道路德會",
    "PIC": "吳山大 牧師",
    "Tel": "05-285-2382",
    "href": "https://church.oursweb.net/church.php?pkey=811504",
    "Addr": "600024嘉義市西區建成街19號",
    "Pos": {
      "lat": "23.4704570",
      "lng": "120.4389970"
    }
  },
  {
    "Title": "財團法人中華福音道路德會聖三一堂",
    "Type": "教會",
    "Area": "台灣 - 南投縣",
    "Source": "財團法人中華福音道路德會",
    "PIC": "陳平安 牧師",
    "Tel": "049-233-7209",
    "href": "https://church.oursweb.net/church.php?pkey=811507",
    "Addr": "540007南投縣南投市中興新村虎山路104號",
    "Pos": {
      "lat": "23.9601360",
      "lng": "120.6855880"
    }
  },
  {
    "Title": "財團法人中華福音道路德會榮恩堂",
    "Type": "教會",
    "Area": "台灣 - 台南市",
    "Source": "財團法人中華福音道路德會",
    "PIC": "萬德樹 牧師",
    "Tel": "06-685-7444",
    "href": "https://church.oursweb.net/church.php?pkey=811510",
    "Addr": "732010台南市白河區仙草里仙草21之4號",
    "Pos": {
      "lat": "23.3542660",
      "lng": "120.4876036"
    }
  },
  {
    "Title": "台灣基督長老教會中路教會",
    "Type": "教會",
    "Area": "台灣 - 高雄市",
    "Source": "台灣基督長老教會總會事務所",
    "PIC": "李佳玲",
    "Tel": "07-631-3640",
    "href": "https://church.oursweb.net/church.php?pkey=811513",
    "Addr": "822412高雄市阿蓮區中路里里中路157號",
    "Pos": {
      "lat": "22.895859299468803",
      "lng": "120.29132827801823"
    }
  },
  {
    "Title": "台灣基督長老教會中興教會（中中）",
    "Type": "教會",
    "Area": "台灣 - 南投縣",
    "Source": "台灣基督長老教會總會事務所",
    "PIC": "謝大舜 牧師",
    "Tel": "049-233-5221",
    "href": "https://church.oursweb.net/church.php?pkey=811515",
    "Addr": "540007南投縣南投市中興新村中正路220-10號",
    "Pos": {
      "lat": "23.9463040",
      "lng": "120.6936400"
    }
  },
  {
    "Title": "台灣基督長老教會中興教會（星中）",
    "Type": "教會",
    "Area": "台灣 - 台北市",
    "Source": "台灣基督長老教會總會事務所",
    "PIC": "",
    "Tel": "02-2502-6018",
    "href": "https://church.oursweb.net/church.php?pkey=811517",
    "Addr": "104080台北市中山區復興北路280巷8號",
    "Pos": {
      "lat": "25.058627",
      "lng": "121.543298"
    }
  },
  {
    "Title": "汐止中興浸信會",
    "Type": "教會",
    "Area": "台灣 - 新北市",
    "Source": "中華基督教浸信會聯會",
    "PIC": "謝建中 牧師",
    "Tel": "02-2695-8577",
    "href": "https://church.oursweb.net/church.php?pkey=811519",
    "Addr": "221017新北市汐止區康寧街541巷12弄22號2樓",
    "Pos": {
      "lat": "25.069269",
      "lng": "121.634121"
    }
  },
  {
    "Title": "中興新村浸信會",
    "Type": "教會",
    "Area": "台灣 - 南投縣",
    "Source": "中華基督教浸信會聯會",
    "PIC": "陳素敏 牧師",
    "Tel": "049-235-9767",
    "href": "https://church.oursweb.net/church.php?pkey=811521",
    "Addr": "540007南投縣南投市中興新村中正路220號",
    "Pos": {
      "lat": "23.946993372256234",
      "lng": "120.69283174966813"
    }
  },
  {
    "Title": "中壢行道會",
    "Type": "教會",
    "Area": "台灣 - 桃園市",
    "Source": "中華基督教行道會聯會",
    "PIC": "黃帶 牧師",
    "Tel": "03-458-4604",
    "href": "https://church.oursweb.net/church.php?pkey=811525",
    "Addr": "324002桃園市平鎮區莒光路1號2~3樓",
    "Pos": {
      "lat": "24.9470380",
      "lng": "121.2223310"
    }
  },
  {
    "Title": "台灣基督長老教會中壢教會",
    "Type": "教會",
    "Area": "台灣 - 桃園市",
    "Source": "台灣基督長老教會總會事務所",
    "PIC": "陳克安 牧師",
    "Tel": "03-422-4354",
    "href": "https://church.oursweb.net/church.php?pkey=811527",
    "Addr": "320001桃園市中壢區中平路124號",
    "Pos": {
      "lat": "24.9555955",
      "lng": "121.2229364"
    }
  },
  {
    "Title": "中壢崇真堂（中華崇真讚美差傳會中壢堂）",
    "Type": "教會",
    "Area": "台灣 - 桃園市",
    "Source": "rev.dr.lu@gmail.com",
    "PIC": "呂謙 牧師",
    "Tel": "03-491-2682",
    "href": "https://church.oursweb.net/church.php?pkey=811531",
    "Addr": "324006桃園市平鎮區育達路133號",
    "Pos": {
      "lat": "24.951543",
      "lng": "121.20987600000001"
    }
  },
  {
    "Title": "國度領袖聖教會",
    "Type": "教會",
    "Area": "台灣 - 桃園市",
    "Source": "台灣聖教會總會",
    "PIC": "蘇信行 牧師",
    "Tel": "03-493-1245",
    "href": "https://church.oursweb.net/church.php?pkey=811533",
    "Addr": "320006桃園市中壢區明德路166號",
    "Pos": {
      "lat": "24.9592209",
      "lng": "121.2169200"
    }
  },
  {
    "Title": "台灣工業福音團契中壢福音中心",
    "Type": "其他",
    "Area": "台灣 - 桃園市",
    "Source": "財團法人工業福音團契",
    "PIC": "張仁愛 傳道",
    "Tel": "03-434-5329",
    "href": "https://church.oursweb.net/church.php?pkey=811536",
    "Addr": "320024桃園市中壢區復華街45號",
    "Pos": {
      "lat": "24.9694140",
      "lng": "121.2474780"
    }
  },
  {
    "Title": "中壢靈糧堂",
    "Type": "教會",
    "Area": "台灣 - 桃園市",
    "Source": "靈糧全球使徒性網絡",
    "PIC": "林宏濱 牧師",
    "Tel": "03-456-1011",
    "href": "https://church.oursweb.net/church.php?pkey=811539",
    "Addr": "320048桃園市中壢區杭州路71號",
    "Pos": {
      "lat": "24.95104563675062",
      "lng": "121.23551646829219"
    }
  },
  {
    "Title": "台灣基督長老教會五甲教會",
    "Type": "教會",
    "Area": "台灣 - 高雄市",
    "Source": "台灣基督長老教會總會事務所",
    "PIC": "黃佩怡 牧師",
    "Tel": "07-821-7553",
    "href": "https://church.oursweb.net/church.php?pkey=811542",
    "Addr": "830056高雄市鳳山區五福里南進1街77號",
    "Pos": {
      "lat": "22.5906190",
      "lng": "120.3285700"
    }
  },
  {
    "Title": "台灣基督長老教會五尖教會",
    "Type": "教會",
    "Area": "台灣 - 新竹縣",
    "Source": "台灣基督長老教會總會事務所",
    "PIC": "明當．尤淦 牧師",
    "Tel": "03-594-0706",
    "href": "https://church.oursweb.net/church.php?pkey=811544",
    "Addr": "310012新竹縣竹東鎮東峰路137巷34弄6號",
    "Pos": {
      "lat": "24.7190560",
      "lng": "121.0977580"
    }
  },
  {
    "Title": "五旬節基督教會",
    "Type": "教會",
    "Area": "台灣 - 新北市",
    "Source": "235061新北市中和區保健路2巷33之1號2樓",
    "PIC": "劉美華",
    "Tel": "02-29427200",
    "href": "https://church.oursweb.net/church.php?pkey=811546",
    "Addr": "235061新北市中和區保健路2巷33之1號2樓",
    "Pos": {
      "lat": "24.9972350",
      "lng": "121.5070040"
    }
  },
  {
    "Title": "台灣基督長老教會中興教會(北中)",
    "Type": "教會",
    "Area": "台灣 - 新北市",
    "Source": "台灣基督長老教會總會事務所",
    "PIC": "丁進益 牧師",
    "Tel": "02-2982-4147",
    "href": "https://church.oursweb.net/church.php?pkey=811549",
    "Addr": "248013新北市五股區中興路二段48號",
    "Pos": {
      "lat": "25.0767250",
      "lng": "121.4618860"
    }
  },
  {
    "Title": "台灣基督長老教會五結教會",
    "Type": "教會",
    "Area": "台灣 - 宜蘭縣",
    "Source": "台灣基督長老教會總會事務所",
    "PIC": "張簡麗琪 牧師",
    "Tel": "03-950-1390",
    "href": "https://church.oursweb.net/church.php?pkey=811552",
    "Addr": "268034宜蘭縣五結鄉五結中路二段76號",
    "Pos": {
      "lat": "24.6933892",
      "lng": "121.79546430000005"
    }
  },
  {
    "Title": "台灣基督長老教會仁化教會",
    "Type": "教會",
    "Area": "台灣 - 台中市",
    "Source": "台灣基督長老教會總會事務所",
    "PIC": "黃俞靜 牧師",
    "Tel": "04-2491-9472",
    "href": "https://church.oursweb.net/church.php?pkey=811554",
    "Addr": "412040台中市大里區慈德路277號",
    "Pos": {
      "lat": "24.0989740",
      "lng": "120.7005610"
    }
  },
  {
    "Title": "中壢神召會",
    "Type": "教會",
    "Area": "台灣 - 桃園市",
    "Source": "中國神召會台灣區議會",
    "PIC": "王冠雄",
    "Tel": "03-458-8056",
    "href": "https://church.oursweb.net/church.php?pkey=811530",
    "Addr": "320072桃園市中壢區新興路38號",
    "Pos": {
      "lat": "24.9517240",
      "lng": "121.2236000"
    }
  },
  {
    "Title": "中壢愛加倍教會",
    "Type": "教會",
    "Area": "台灣 - 桃園市",
    "Source": "320048桃園市中壢區廣州路95號",
    "PIC": "黃帶 牧師",
    "Tel": "03-457-8692",
    "href": "https://church.oursweb.net/church.php?pkey=811532",
    "Addr": "320048桃園市中壢區廣州路95號",
    "Pos": {
      "lat": "24.9515920",
      "lng": "121.2302220"
    }
  },
  {
    "Title": "中壢聖經教會",
    "Type": "教會",
    "Area": "台灣 - 桃園市",
    "Source": "320319桃園市中壢區新生路二段421號",
    "PIC": "楊紀浩 牧師",
    "Tel": "03-453-2944",
    "href": "https://church.oursweb.net/church.php?pkey=811534",
    "Addr": "320319桃園市中壢區新生路二段421號",
    "Pos": {
      "lat": "24.9854680",
      "lng": "121.2219860"
    }
  },
  {
    "Title": "中壢播道會",
    "Type": "教會",
    "Area": "台灣 - 桃園市",
    "Source": "中國基督教播道會總會",
    "PIC": "",
    "Tel": "03-492-5914",
    "href": "https://church.oursweb.net/church.php?pkey=811538",
    "Addr": "324005桃園市平鎮區環南路301巷12弄6號",
    "Pos": {
      "lat": "24.9498200",
      "lng": "121.2076160"
    }
  },
  {
    "Title": "台灣基督長老教會丹鳳教會",
    "Type": "教會",
    "Area": "台灣 - 桃園市",
    "Source": "台灣基督長老教會總會事務所",
    "PIC": "徐美花 牧師",
    "Tel": "02-2297-2313",
    "href": "https://church.oursweb.net/church.php?pkey=811541",
    "Addr": "333026桃園市龜山區萬壽路一段529號8樓",
    "Pos": {
      "lat": "25.0163497",
      "lng": "121.39954130000001"
    }
  },
  {
    "Title": "五甲浸信會",
    "Type": "教會",
    "Area": "台灣 - 高雄市",
    "Source": "中華基督教浸信會聯會",
    "PIC": "王蕭怡華 傳道",
    "Tel": "07-812-0629",
    "href": "https://church.oursweb.net/church.php?pkey=811543",
    "Addr": "830056高雄市鳳山區南光街20巷1之1號2樓",
    "Pos": {
      "lat": "22.5922690",
      "lng": "120.3292620"
    }
  },
  {
    "Title": "五旬節基督教會",
    "Type": "教會",
    "Area": "台灣 - 新北市",
    "Source": "220097新北市板橋區大觀路2段150巷63號4樓",
    "PIC": "陳揚道",
    "Tel": "02-29685943",
    "href": "https://church.oursweb.net/church.php?pkey=811545",
    "Addr": "220097新北市板橋區大觀路2段150巷63號4樓",
    "Pos": {
      "lat": "25.0004350",
      "lng": "121.4414400"
    }
  },
  {
    "Title": "五旬節教會",
    "Type": "教會",
    "Area": "台灣 - 台中市",
    "Source": "411642台中市太平區樹孝路337巷2弄10號13樓",
    "PIC": "艾德明",
    "Tel": "04-3910762",
    "href": "https://church.oursweb.net/church.php?pkey=811547",
    "Addr": "411642台中市太平區樹孝路337巷2弄10號13樓",
    "Pos": {
      "lat": "24.1505096",
      "lng": "120.7164737"
    }
  },
  {
    "Title": "台灣基督長老教會五峰教會",
    "Type": "教會",
    "Area": "台灣 - 新竹縣",
    "Source": "台灣基督長老教會總會事務所",
    "PIC": "以紹．芝佑牧師",
    "Tel": "03-585-1782",
    "href": "https://church.oursweb.net/church.php?pkey=811551",
    "Addr": "311001新竹縣五峰鄉大隘村12鄰190-1號",
    "Pos": {
      "lat": "24.622643162380",
      "lng": "121.091709774621"
    }
  },
  {
    "Title": "台灣基督長老教會五福教會",
    "Type": "教會",
    "Area": "台灣 - 高雄市",
    "Source": "台灣基督長老教會總會事務所",
    "PIC": "王彥愍",
    "Tel": "07-225-4997",
    "href": "https://church.oursweb.net/church.php?pkey=811553",
    "Addr": "802413高雄市苓雅區中正二路20號11樓",
    "Pos": {
      "lat": "22.6302120",
      "lng": "120.3209760"
    }
  },
  {
    "Title": "仁里聖教會",
    "Type": "教會",
    "Area": "台灣 - 花蓮縣",
    "Source": "台灣聖教會總會",
    "PIC": "張長青 牧師",
    "Tel": "03-852-5548",
    "href": "https://church.oursweb.net/church.php?pkey=811556",
    "Addr": "973060花蓮縣吉安鄉仁里村仁里六街22號",
    "Pos": {
      "lat": "23.9702480",
      "lng": "121.5875310"
    }
  },
  {
    "Title": "仁和神召會",
    "Type": "教會",
    "Area": "台灣 - 花蓮縣",
    "Source": "財團法人基督教台灣神召會聯合會",
    "PIC": "蕭麗玉 傳道",
    "Tel": "03-842-0224",
    "href": "https://church.oursweb.net/church.php?pkey=811558",
    "Addr": "973035花蓮縣吉安鄉仁和村南海十一街221號",
    "Pos": {
      "lat": "23.939797",
      "lng": "121.58542599999998"
    }
  },
  {
    "Title": "台灣基督長老教會仁武教會",
    "Type": "教會",
    "Area": "台灣 - 高雄市",
    "Source": "台灣基督長老教會總會事務所",
    "PIC": "田永人 牧師",
    "Tel": "07-371-1531",
    "href": "https://church.oursweb.net/church.php?pkey=811560",
    "Addr": "814014高雄市仁武區仁武里仁信巷50號",
    "Pos": {
      "lat": "22.70319150491598",
      "lng": "120.34900450695419"
    }
  },
  {
    "Title": "台灣基督長老教會仁雄教會",
    "Type": "教會",
    "Area": "台灣 - 高雄市",
    "Source": "台灣基督長老教會總會事務所",
    "PIC": "",
    "Tel": "07-374-0351",
    "href": "https://church.oursweb.net/church.php?pkey=811563",
    "Addr": "814023高雄市仁武區仁忠六街12號",
    "Pos": {
      "lat": "22.679073909350976",
      "lng": "120.35562307240124"
    }
  },
  {
    "Title": "台灣基督長老教會仁愛教會",
    "Type": "教會",
    "Area": "台灣 - 台北市",
    "Source": "台灣基督長老教會總會事務所",
    "PIC": "陳天來 牧師",
    "Tel": "02-2701-6779",
    "href": "https://church.oursweb.net/church.php?pkey=811565",
    "Addr": "106095台北市大安區復興南路一段295巷32號",
    "Pos": {
      "lat": "25.035105",
      "lng": "121.545675"
    }
  },
  {
    "Title": "中華基督教仁愛浸信會",
    "Type": "教會",
    "Area": "台灣 - 新北市",
    "Source": "中華基督教浸信會聯會",
    "PIC": "錢麗蓉 牧師",
    "Tel": "02-2955-0629",
    "href": "https://church.oursweb.net/church.php?pkey=811567",
    "Addr": "220821新北市板橋區貴興路80號地下一樓",
    "Pos": {
      "lat": "25.0026494",
      "lng": "121.45598619999998"
    }
  },
  {
    "Title": "台灣基督長老教會仁德教會",
    "Type": "教會",
    "Area": "台灣 - 台南市",
    "Source": "台灣基督長老教會總會事務所",
    "PIC": "顏正豐 牧師",
    "Tel": "06-279-3582",
    "href": "https://church.oursweb.net/church.php?pkey=811569",
    "Addr": "717018台南市仁德區中正路二段389號",
    "Pos": {
      "lat": "22.9534047",
      "lng": "120.2519071"
    }
  },
  {
    "Title": "台灣基督長老教會內文教會",
    "Type": "教會",
    "Area": "台灣 - 屏東縣",
    "Source": "台灣基督長老教會總會事務所",
    "PIC": "蕭世光 牧師",
    "Tel": "08-870-0033",
    "href": "https://church.oursweb.net/church.php?pkey=811572",
    "Addr": "943013屏東縣獅子鄉內文村2巷10號",
    "Pos": {
      "lat": "22.2321320",
      "lng": "120.8326663"
    }
  },
  {
    "Title": "內埔基督教會",
    "Type": "教會",
    "Area": "台灣 - 屏東縣",
    "Source": "912015屏東縣內埔鄉自強61巷9號",
    "PIC": "鍾明勳 牧師",
    "Tel": "08-779-1367",
    "href": "https://church.oursweb.net/church.php?pkey=811574",
    "Addr": "912015屏東縣內埔鄉自強61巷9號",
    "Pos": {
      "lat": "22.6161950",
      "lng": "120.5653940"
    }
  },
  {
    "Title": "財團法人中華基督教行道會內湖教會文德堂",
    "Type": "教會",
    "Area": "台灣 - 台北市",
    "Source": "中華基督教行道會聯會",
    "PIC": "林永錚 牧師",
    "Tel": "02-2657-9428",
    "href": "https://church.oursweb.net/church.php?pkey=811577",
    "Addr": "114035台北市內湖區文德路208巷16號B1",
    "Pos": {
      "lat": "25.077641",
      "lng": "121.58352009999999"
    }
  },
  {
    "Title": "浸禮聖經會仁光教會",
    "Type": "教會",
    "Area": "台灣 - 台中市",
    "Source": "基督教浸禮聖經會聯會",
    "PIC": "孫安德",
    "Tel": "04-2254-8117",
    "href": "https://church.oursweb.net/church.php?pkey=811555",
    "Addr": "408414台中市南屯區大墩12街626號",
    "Pos": {
      "lat": "24.1503013",
      "lng": "120.6374554"
    }
  },
  {
    "Title": "台灣基督長老教會仁和教會",
    "Type": "教會",
    "Area": "台灣 - 台南市",
    "Source": "台灣基督長老教會總會事務所",
    "PIC": "",
    "Tel": "06-288-1189",
    "href": "https://church.oursweb.net/church.php?pkey=811557",
    "Addr": "701018台南市東區仁和路182號",
    "Pos": {
      "lat": "22.9693500",
      "lng": "120.2343475"
    }
  },
  {
    "Title": "仁和基督教會",
    "Type": "教會",
    "Area": "台灣 - 台南市",
    "Source": "Church7390@gmail.com",
    "PIC": "張振生 傳道",
    "Tel": "06-290-4582",
    "href": "https://church.oursweb.net/church.php?pkey=811559",
    "Addr": "701038台南市東區長東街145巷49號",
    "Pos": {
      "lat": "22.9602700",
      "lng": "120.2311690"
    }
  },
  {
    "Title": "台灣基督長老教會仁美教會",
    "Type": "教會",
    "Area": "台灣 - 高雄市",
    "Source": "台灣基督長老教會總會事務所",
    "PIC": "林永恩 牧師",
    "Tel": "07-731-3037",
    "href": "https://church.oursweb.net/church.php?pkey=811561",
    "Addr": "833164高雄市鳥松區仁美里介壽路14號",
    "Pos": {
      "lat": "22.656157903239347",
      "lng": "120.39312359194332"
    }
  },
  {
    "Title": "仁愛之家基督徒團契",
    "Type": "教會",
    "Area": "台灣 - 新北市",
    "Source": "207204新北市萬里區龜吼里玉田路61號",
    "PIC": "蕭逸名",
    "Tel": "02-2492-2511",
    "href": "https://church.oursweb.net/church.php?pkey=811564",
    "Addr": "207204新北市萬里區龜吼里玉田路61號",
    "Pos": {
      "lat": "25.197699",
      "lng": "121.684493"
    }
  },
  {
    "Title": "台灣基督長老教會仁愛教會（彰中）",
    "Type": "教會",
    "Area": "台灣 - 彰化縣",
    "Source": "台灣基督長老教會總會事務所",
    "PIC": "",
    "Tel": "04-893-1586",
    "href": "https://church.oursweb.net/church.php?pkey=811566",
    "Addr": "528009彰化縣芳苑鄉新寶村中正路995號",
    "Pos": {
      "lat": "23.9718210",
      "lng": "120.3597980"
    }
  },
  {
    "Title": "台灣基督長老教會仁義教會",
    "Type": "教會",
    "Area": "台灣 - 新北市",
    "Source": "台灣基督長老教會總會事務所",
    "PIC": "",
    "Tel": "02-2987-5577",
    "href": "https://church.oursweb.net/church.php?pkey=811568",
    "Addr": "241077新北市三重區五華街7巷75號1樓",
    "Pos": {
      "lat": "25.0805720",
      "lng": "121.4966190"
    }
  },
  {
    "Title": "台灣基督長老教會元長教會",
    "Type": "教會",
    "Area": "台灣 - 雲林縣",
    "Source": "台灣基督長老教會總會事務所",
    "PIC": "",
    "Tel": "05-788-1434",
    "href": "https://church.oursweb.net/church.php?pkey=811571",
    "Addr": "655011雲林縣元長鄉元西路5之24號",
    "Pos": {
      "lat": "23.6509630",
      "lng": "120.3117850"
    }
  },
  {
    "Title": "台灣基督長老教會內埔教會",
    "Type": "教會",
    "Area": "台灣 - 屏東縣",
    "Source": "neipupct@gmail.com",
    "PIC": "李鳳嬌 牧師",
    "Tel": "08-779-2087",
    "href": "https://church.oursweb.net/church.php?pkey=811573",
    "Addr": "912015屏東縣內埔鄉東寧村北寧路31號",
    "Pos": {
      "lat": "22.6190480",
      "lng": "120.5657790"
    }
  },
  {
    "Title": "台灣基督長老教會內惟教會",
    "Type": "教會",
    "Area": "台灣 - 高雄市",
    "Source": "台灣基督長老教會總會事務所",
    "PIC": "李沂安 牧師",
    "Tel": "07-582-2992",
    "href": "https://church.oursweb.net/church.php?pkey=811575",
    "Addr": "804053高雄市鼓山區九如四路1253號",
    "Pos": {
      "lat": "22.6619590",
      "lng": "120.2811470"
    }
  },
  {
    "Title": "內湖浸信會",
    "Type": "教會",
    "Area": "台灣 - 台北市",
    "Source": "中華基督教浸信會聯會",
    "PIC": "魯王明珠 師母",
    "Tel": "02-2790-5510",
    "href": "https://church.oursweb.net/church.php?pkey=811579",
    "Addr": "114023台北市內湖區內湖路二段380號3樓",
    "Pos": {
      "lat": "25.082589",
      "lng": "121.591321"
    }
  },
  {
    "Title": "台灣基督長老教會內新教會",
    "Type": "教會",
    "Area": "台灣 - 台中市",
    "Source": "台灣基督長老教會總會事務所",
    "PIC": "王福祥 牧師",
    "Tel": "04-2486-0001",
    "href": "https://church.oursweb.net/church.php?pkey=811582",
    "Addr": "412006台中市大里區內新街頂庄巷2號",
    "Pos": {
      "lat": "24.1122500",
      "lng": "120.6945740"
    }
  },
  {
    "Title": "台灣基督長老教會內壢教會",
    "Type": "教會",
    "Area": "台灣 - 桃園市",
    "Source": "台灣基督長老教會總會事務所",
    "PIC": "彭志鴻 牧師",
    "Tel": "03-455-1491",
    "href": "https://church.oursweb.net/church.php?pkey=811584",
    "Addr": "320027桃園市中壢區成章一街133號",
    "Pos": {
      "lat": "24.9760280",
      "lng": "121.2562140"
    }
  },
  {
    "Title": "內壢榮美崇真堂",
    "Type": "教會",
    "Area": "台灣 - 桃園市",
    "Source": "基督教台灣崇真會",
    "PIC": "鐘淑怡 牧師",
    "Tel": "03-463-9350",
    "href": "https://church.oursweb.net/church.php?pkey=811586",
    "Addr": "320033桃園市中壢區榮安二街96號2樓",
    "Pos": {
      "lat": "24.964548112666385",
      "lng": "121.25849806745909"
    }
  },
  {
    "Title": "六家福音中心",
    "Type": "教會",
    "Area": "台灣 - 新竹縣",
    "Source": "302053新竹縣竹北市隘口三街135號1樓",
    "PIC": "湯心如",
    "Tel": "03-591-6330, 0920-030972",
    "href": "https://church.oursweb.net/church.php?pkey=811590",
    "Addr": "302053新竹縣竹北市隘口三街135號1樓",
    "Pos": {
      "lat": "24.8173220",
      "lng": "121.0282400"
    }
  },
  {
    "Title": "台灣基督長老教會六農教會",
    "Type": "教會",
    "Area": "台灣 - 高雄市",
    "Source": "台灣基督長老教會總會事務所",
    "PIC": "林國義 傳道師",
    "Tel": "07-689-2229",
    "href": "https://church.oursweb.net/church.php?pkey=811592",
    "Addr": "844001高雄市六龜區育樂巷22號",
    "Pos": {
      "lat": "22.9996530",
      "lng": "120.6331200"
    }
  },
  {
    "Title": "六龜浸信會",
    "Type": "教會",
    "Area": "台灣 - 高雄市",
    "Source": "中華基督教浸信會聯會",
    "PIC": "楊子江 牧師",
    "Tel": "07-689-1054",
    "href": "https://church.oursweb.net/church.php?pkey=811594",
    "Addr": "844001高雄市六龜區華南街38號",
    "Pos": {
      "lat": "22.9978210",
      "lng": "120.6341010"
    }
  },
  {
    "Title": "台灣基督長老教會公園教會",
    "Type": "教會",
    "Area": "台灣 - 新竹市",
    "Source": "台灣基督長老教會總會事務所",
    "PIC": "黃銅沛 牧師",
    "Tel": "03-522-1960",
    "href": "https://church.oursweb.net/church.php?pkey=811598",
    "Addr": "300044新竹市東區光復路二段523號5樓",
    "Pos": {
      "lat": "24.8025140",
      "lng": "120.9813560"
    }
  },
  {
    "Title": "台灣基督長老教會公館教會（竹中）",
    "Type": "教會",
    "Area": "台灣 - 苗栗縣",
    "Source": "台灣基督長老教會總會事務所",
    "PIC": "黃毓瑜 牧師",
    "Tel": "037-22-2334",
    "href": "https://church.oursweb.net/church.php?pkey=811600",
    "Addr": "363011苗栗縣公館鄉成功路19號",
    "Pos": {
      "lat": "24.5019845",
      "lng": "120.8269554"
    }
  },
  {
    "Title": "台灣基督長老教會台北公館教會",
    "Type": "教會",
    "Area": "台灣 - 台北市",
    "Source": "台灣基督長老教會總會事務所",
    "PIC": "王豐榮 牧師",
    "Tel": "02-2932-7941",
    "href": "https://church.oursweb.net/church.php?pkey=811602",
    "Addr": "116059台北市文山區汀州路四段85巷2號",
    "Pos": {
      "lat": "25.007419",
      "lng": "121.537566"
    }
  },
  {
    "Title": "台灣基督長老教會內湖教會",
    "Type": "教會",
    "Area": "台灣 - 台北市",
    "Source": "台灣基督長老教會總會事務所",
    "PIC": "周淑玲 牧師",
    "Tel": "02-2790-4938",
    "href": "https://church.oursweb.net/church.php?pkey=811578",
    "Addr": "114019台北市內湖區康寧路一段138號2樓",
    "Pos": {
      "lat": "25.079139",
      "lng": "121.593713"
    }
  },
  {
    "Title": "內湖靈糧堂",
    "Type": "教會",
    "Area": "台灣 - 台北市",
    "Source": "靈糧全球使徒性網絡",
    "PIC": "莊嘉琳 牧師",
    "Tel": "02-2632-5899",
    "href": "https://church.oursweb.net/church.php?pkey=811581",
    "Addr": "114043台北市內湖區民權東路六段296巷66號B1",
    "Pos": {
      "lat": "25.0706351",
      "lng": "121.60841649999998"
    }
  },
  {
    "Title": "台灣基督長老教會阿茲達斯教會",
    "Type": "教會",
    "Area": "台灣 - 屏東縣",
    "Source": "台灣基督長老教會總會事務所",
    "PIC": "蔡美花 牧師",
    "Tel": "08-872-1467",
    "href": "https://church.oursweb.net/church.php?pkey=811583",
    "Addr": "943010屏東縣獅子鄉內獅村4鄰36號",
    "Pos": {
      "lat": "22.302931453945",
      "lng": "120.645205670352"
    }
  },
  {
    "Title": "大衛帳幕教會",
    "Type": "教會",
    "Area": "台灣 - 桃園市",
    "Source": "新浪潮宣教會",
    "PIC": "朴鍾珊 牧師",
    "Tel": "03-434-3806",
    "href": "https://church.oursweb.net/church.php?pkey=811585",
    "Addr": "320063桃園市中壢區環中東路561號3樓",
    "Pos": {
      "lat": "24.9577786",
      "lng": "121.24961150000001"
    }
  },
  {
    "Title": "台灣基督長老教會六甲教會",
    "Type": "教會",
    "Area": "台灣 - 台南市",
    "Source": "台灣基督長老教會總會事務所",
    "PIC": "邱世榮 牧師",
    "Tel": "06-698-2574",
    "href": "https://church.oursweb.net/church.php?pkey=811588",
    "Addr": "734041台南市六甲區六甲里建國街150號",
    "Pos": {
      "lat": "23.2319840",
      "lng": "120.3531450"
    }
  },
  {
    "Title": "台灣基督長老教會六張犁教會",
    "Type": "教會",
    "Area": "台灣 - 台北市",
    "Source": "台灣基督長老教會總會事務所",
    "PIC": "張昱庭 牧師",
    "Tel": "02-2732-9041",
    "href": "https://church.oursweb.net/church.php?pkey=811591",
    "Addr": "106042台北市大安區臥龍街215號",
    "Pos": {
      "lat": "25.0178659",
      "lng": "121.5520725"
    }
  },
  {
    "Title": "台灣基督長老教會六龜教會",
    "Type": "教會",
    "Area": "台灣 - 高雄市",
    "Source": "台灣基督長老教會總會事務所",
    "PIC": "",
    "Tel": "07-689-4173",
    "href": "https://church.oursweb.net/church.php?pkey=811593",
    "Addr": "844001高雄市六龜區義寶里光復路154-9號",
    "Pos": {
      "lat": "22.9946098",
      "lng": "120.6351043"
    }
  },
  {
    "Title": "台灣基督長老教會公英教會",
    "Type": "教會",
    "Area": "台灣 - 台南市",
    "Source": "台灣基督長老教會總會事務所",
    "PIC": "王朝陽 牧師",
    "Tel": "06-268-0094",
    "href": "https://church.oursweb.net/church.php?pkey=811597",
    "Addr": "702003台南市南區大同路二段620巷13號",
    "Pos": {
      "lat": "22.9689550",
      "lng": "120.2148510"
    }
  },
  {
    "Title": "公園路浸信會",
    "Type": "教會",
    "Area": "台灣 - 台南市",
    "Source": "中華基督教浸信會聯會",
    "PIC": "高佳美 牧師",
    "Tel": "0911-713-277",
    "href": "https://church.oursweb.net/church.php?pkey=811599",
    "Addr": "704030台南市北區公園路540號",
    "Pos": {
      "lat": "23.0069271",
      "lng": "120.2103380"
    }
  },