[
  {
    "Title": "上光基督教會",
    "Type": "教會",
    "Area": "台灣 - 新竹縣",
    "Source": "victoria@greenark.net",
    "PIC": "高正勝 (達那伊谷) 牧師",
    "Tel": "0910427360",
    "href": "https://church.oursweb.net/church.php?pkey=811307",
    "Addr": "313004新竹縣尖石鄉鄉錦屏村6鄰16號之2",
    "Pos": {
      "lat": "24.6813208",
      "lng": "121.2126772"
    }
  },
  {
    "Title": "財團法人台灣省中華基督教恩霖堂",
    "Type": "教會",
    "Area": "台灣 - 新竹縣",
    "Source": "",
    "PIC": "葉輔宏 牧師",
    "Tel": "03-592-3728",
    "href": "https://church.oursweb.net/church.php?pkey=811371",
    "Addr": "",
    "Pos": {}
  },
  {
    "Title": "中華聖潔會竹北教會",
    "Type": "教會",
    "Area": "台灣 - 新竹縣",
    "Source": "財團法人基督教中華聖潔會",
    "PIC": "鄧欽志",
    "Tel": "03-588-9828",
    "href": "https://church.oursweb.net/church.php?pkey=811464",
    "Addr": "305043新竹縣新埔鎮褒忠路87號",
    "Pos": {
      "lat": "24.7372223",
      "lng": "121.0869376"
    }
  },
  {
    "Title": "中華聖潔會新豐教會新豐堂",
    "Type": "教會",
    "Area": "台灣 - 新竹縣",
    "Source": "財團法人基督教中華聖潔會",
    "PIC": "劉修泉 牧師",
    "Tel": "03-559-1898",
    "href": "https://church.oursweb.net/church.php?pkey=811471",
    "Addr": "304109新竹縣新豐鄉建興路一段45號",
    "Pos": {
      "lat": "24.8711740",
      "lng": "120.9953833"
    }
  },
  {
    "Title": "中華聖潔會關西教會",
    "Type": "教會",
    "Area": "台灣 - 新竹縣",
    "Source": "",
    "PIC": "孫秀琴 傳道",
    "Tel": "03-587-2773",
    "href": "https://church.oursweb.net/church.php?pkey=811473",
    "Addr": "",
    "Pos": {}
  },
  {
    "Title": "台灣基督長老教會五峰教會",
    "Type": "教會",
    "Area": "台灣 - 新竹縣",
    "Source": "台灣基督長老教會總會事務所",
    "PIC": "以紹．芝佑牧師",
    "Tel": "03-585-1782",
    "href": "https://church.oursweb.net/church.php?pkey=811551",
    "Addr": "311001新竹縣五峰鄉大隘村12鄰190-1號",
    "Pos": {
      "lat": "24.622643162380",
      "lng": "121.091709774621"
    }
  },
  {
    "Title": "台灣基督長老教會田埔教會（泰中）",
    "Type": "教會",
    "Area": "台灣 - 新竹縣",
    "Source": "台灣基督長老教會總會事務所",
    "PIC": "徐正義",
    "Tel": "03-584-7816",
    "href": "https://church.oursweb.net/church.php?pkey=812060",
    "Addr": "313004新竹縣尖石鄉秀巒村1鄰1號",
    "Pos": {
      "lat": "24.619296",
      "lng": "121.286284"
    }
  },
  {
    "Title": "竹北聖教會",
    "Type": "教會",
    "Area": "台灣 - 新竹縣",
    "Source": "台灣聖教會總會",
    "PIC": "陳雲明 牧師",
    "Tel": "03-555-3092",
    "href": "https://church.oursweb.net/church.php?pkey=812137",
    "Addr": "302081新竹縣竹北市中山路503號",
    "Pos": {
      "lat": "24.8386510",
      "lng": "121.0134680"
    }
  },
  {
    "Title": "台灣基督長老教會竹東教會",
    "Type": "教會",
    "Area": "台灣 - 新竹縣",
    "Source": "台灣基督長老教會總會事務所",
    "PIC": "何碧安 牧師",
    "Tel": "03-596-9126",
    "href": "https://church.oursweb.net/church.php?pkey=812141",
    "Addr": "310004新竹縣竹東鎮長春路三段121號",
    "Pos": {
      "lat": "24.7427171",
      "lng": "121.0842793"
    }
  },
  {
    "Title": "改革宗長老會花園教會",
    "Type": "教會",
    "Area": "台灣 - 新竹縣",
    "Source": "基督教改革宗長老會",
    "PIC": "",
    "Tel": "03-585-1371",
    "href": "https://church.oursweb.net/church.php?pkey=812205",
    "Addr": "311001新竹縣五峰鄉花園村7鄰154號",
    "Pos": {
      "lat": "24.6823340",
      "lng": "121.1648490"
    }
  },
  {
    "Title": "台灣基督長老教會二重埔教會",
    "Type": "教會",
    "Area": "台灣 - 新竹縣",
    "Source": "台灣基督長老教會總會事務所",
    "PIC": "連江河 牧師",
    "Tel": "03-582-6932",
    "href": "https://church.oursweb.net/church.php?pkey=811245",
    "Addr": "310016新竹縣竹東鎮中興路二段335號",
    "Pos": {
      "lat": "24.7636200",
      "lng": "121.0593860"
    }
  },
  {
    "Title": "中華基督教信義會厚賜堂",
    "Type": "教會",
    "Area": "台灣 - 新竹縣",
    "Source": "財團法人台灣省中華基督教信義會",
    "PIC": "",
    "Tel": "03-596-0457",
    "href": "https://church.oursweb.net/church.php?pkey=811370",
    "Addr": "310006新竹縣竹東鎮東寧路二段11巷1號",
    "Pos": {
      "lat": "24.7295470",
      "lng": "121.0913690"
    }
  },
  {
    "Title": "基督教中華聖潔會北埔教會",
    "Type": "教會",
    "Area": "台灣 - 新竹縣",
    "Source": "財團法人基督教中華聖潔會",
    "PIC": "詹智華",
    "Tel": "0971-779-712",
    "href": "https://church.oursweb.net/church.php?pkey=811461",
    "Addr": "314001新竹縣北埔鄉城門街46號",
    "Pos": {
      "lat": "24.6991190",
      "lng": "121.0558790"
    }
  },
  {
    "Title": "中華聖潔會新埔教會",
    "Type": "教會",
    "Area": "台灣 - 新竹縣",
    "Source": "財團法人基督教中華聖潔會",
    "PIC": "徐蘭勝 牧師",
    "Tel": "03-588-3196",
    "href": "https://church.oursweb.net/church.php?pkey=811470",
    "Addr": "305041新竹縣新埔鎮義民路一段20號",
    "Pos": {
      "lat": "24.8282030",
      "lng": "121.0695270"
    }
  },
  {
    "Title": "中華聖潔會鳳山村教會",
    "Type": "教會",
    "Area": "台灣 - 新竹縣",
    "Source": "財團法人基督教中華聖潔會",
    "PIC": "蘇秀娟 教師",
    "Tel": "03-597-6906",
    "href": "https://church.oursweb.net/church.php?pkey=811472",
    "Addr": "303102新竹縣湖口鄉鳳山村勝利路二段219號",
    "Pos": {
      "lat": "24.8595020",
      "lng": "121.0212960"
    }
  },
  {
    "Title": "台灣基督長老教會五尖教會",
    "Type": "教會",
    "Area": "台灣 - 新竹縣",
    "Source": "台灣基督長老教會總會事務所",
    "PIC": "明當．尤淦 牧師",
    "Tel": "03-594-0706",
    "href": "https://church.oursweb.net/church.php?pkey=811544",
    "Addr": "310012新竹縣竹東鎮東峰路137巷34弄6號",
    "Pos": {
      "lat": "24.7190560",
      "lng": "121.0977580"
    }
  },
  {
    "Title": "六家福音中心",
    "Type": "教會",
    "Area": "台灣 - 新竹縣",
    "Source": "302053新竹縣竹北市隘口三街135號1樓",
    "PIC": "湯心如",
    "Tel": "03-591-6330, 0920-030972",
    "href": "https://church.oursweb.net/church.php?pkey=811590",
    "Addr": "302053新竹縣竹北市隘口三街135號1樓",
    "Pos": {
      "lat": "24.8173220",
      "lng": "121.0282400"
    }
  },
  {
    "Title": "台灣基督長老教會竹北教會",
    "Type": "教會",
    "Area": "台灣 - 新竹縣",
    "Source": "台灣基督長老教會總會事務所",
    "PIC": "林坤麟 牧師",
    "Tel": "03-555-3706",
    "href": "https://church.oursweb.net/church.php?pkey=812136",
    "Addr": "302001新竹縣竹北市中正東路366號",
    "Pos": {
      "lat": "24.8364030",
      "lng": "121.0100190"
    }
  },
  {
    "Title": "竹東五福禮拜堂",
    "Type": "教會",
    "Area": "台灣 - 新竹縣",
    "Source": "310006新竹縣竹東鎮大林路26巷4弄8號",
    "PIC": "賴傳榮",
    "Tel": "03-5940104",
    "href": "https://church.oursweb.net/church.php?pkey=812140",
    "Addr": "310006新竹縣竹東鎮大林路26巷4弄8號",
    "Pos": {
      "lat": "24.7315780",
      "lng": "121.0887280"
    }
  },
  {
    "Title": "改革宗長老會竹東教會",
    "Type": "教會",
    "Area": "台灣 - 新竹縣",
    "Source": "基督教改革宗長老會",
    "PIC": "鄒仁裕",
    "Tel": "03-596-4821",
    "href": "https://church.oursweb.net/church.php?pkey=812200",
    "Addr": "310011新竹縣竹東鎮幸福路132號",
    "Pos": {
      "lat": "24.7231030",
      "lng": "121.0908120"
    }
  },
  {
    "Title": "中華拓荒團橫山社區福音中心",
    "Type": "教會",
    "Area": "台灣 - 新竹縣",
    "Source": "j120565kimo@yahoo.com.tw",
    "PIC": "鍾聖一 傳道",
    "Tel": "03-593-1447",
    "href": "https://church.oursweb.net/church.php?pkey=812379",
    "Addr": "312002新竹縣橫山鄉大肚村永昌街154號",
    "Pos": {
      "lat": "24.7231020",
      "lng": "121.1331990"
    }
  },
  {
    "Title": "台灣基督長老教會石磊教會",
    "Type": "教會",
    "Area": "台灣 - 新竹縣",
    "Source": "台灣基督長老教會總會事務所",
    "PIC": "羅路加",
    "Tel": "03-584-7003",
    "href": "https://church.oursweb.net/church.php?pkey=812466",
    "Addr": "313005新竹縣尖石鄉玉峰村10鄰石磊53號",
    "Pos": {
      "lat": "24.70577786650096",
      "lng": "121.202332808599"
    }
  },
  {
    "Title": "台灣基督長老教會湖口教會",
    "Type": "教會",
    "Area": "台灣 - 新竹縣",
    "Source": "台灣基督長老教會總會事務所",
    "PIC": "彭榮光 牧師",
    "Tel": "03-599-2442",
    "href": "https://church.oursweb.net/church.php?pkey=812533",
    "Addr": "303032新竹縣湖口鄉民族街200號",
    "Pos": {
      "lat": "24.9050830",
      "lng": "121.0470140"
    }
  },
  {
    "Title": "新竹靈糧堂",
    "Type": "教會",
    "Area": "台灣 - 新竹縣",
    "Source": "靈糧全球使徒性網絡",
    "PIC": "苗其傑 牧師",
    "Tel": "03-558-8577",
    "href": "https://church.oursweb.net/church.php?pkey=812644",
    "Addr": "302048新竹縣竹北市嘉勤南路86號",
    "Pos": {
      "lat": "24.8222",
      "lng": "121.0160"
    }
  },
  {
    "Title": "台灣基督長老教會新豐教會（竹中）",
    "Type": "教會",
    "Area": "台灣 - 新竹縣",
    "Source": "台灣基督長老教會總會事務所",
    "PIC": "林立倫 牧師",
    "Tel": "03-557-9095",
    "href": "https://church.oursweb.net/church.php?pkey=812697",
    "Addr": "304034新竹縣新豐鄉福德街38號",
    "Pos": {
      "lat": "24.8723299",
      "lng": "120.9970160"
    }
  },
  {
    "Title": "台灣基督長老教會煤源教會",
    "Type": "教會",
    "Area": "台灣 - 新竹縣",
    "Source": "台灣基督長老教會總會事務所",
    "PIC": "溫嬌玲 牧師",
    "Tel": "03-584-2423",
    "href": "https://church.oursweb.net/church.php?pkey=812720",
    "Addr": "313002新竹縣尖石鄉新樂村10鄰煤源113號",
    "Pos": {
      "lat": "24.713197549157",
      "lng": "121.26944980567"
    }
  },
  {
    "Title": "台灣基督長老教會那羅教會",
    "Type": "教會",
    "Area": "台灣 - 新竹縣",
    "Source": "台灣基督長老教會總會事務所",
    "PIC": "邱榮忠 牧師",
    "Tel": "03-584-1034",
    "href": "https://church.oursweb.net/church.php?pkey=812807",
    "Addr": "313011新竹縣尖石鄉錦屏村那羅10鄰113號",
    "Pos": {
      "lat": "24.7360340",
      "lng": "121.2392290"
    }
  },
  {
    "Title": "台灣基督長老教會嘉樂教會",
    "Type": "教會",
    "Area": "台灣 - 新竹縣",
    "Source": "台灣基督長老教會總會事務所",
    "PIC": "江瑞乾 牧師",
    "Tel": "0989-821863",
    "href": "https://church.oursweb.net/church.php?pkey=812935",
    "Addr": "313012新竹縣尖石鄉嘉樂村6鄰24號",
    "Pos": {
      "lat": "24.7360340",
      "lng": "121.2392290"
    }
  },
  {
    "Title": "台灣基督長老教會帛納外教會",
    "Type": "教會",
    "Area": "台灣 - 新竹縣",
    "Source": "台灣基督長老教會總會事務所",
    "PIC": "羅慶部",
    "Tel": "03-391-2506",
    "href": "https://church.oursweb.net/church.php?pkey=813081",
    "Addr": "313005新竹縣尖石鄉玉峰村抬耀13鄰46-1號",
    "Pos": {
      "lat": "24.650167",
      "lng": "121.340325"
    }
  },
  {
    "Title": "台灣基督長老教會鎮西堡教會",
    "Type": "教會",
    "Area": "台灣 - 新竹縣",
    "Source": "台灣基督長老教會總會事務所",
    "PIC": "諾瓦．歐洛 牧師",
    "Tel": "03-584-7713",
    "href": "https://church.oursweb.net/church.php?pkey=813283",
    "Addr": "313004新竹縣尖石鄉秀巒村9鄰14-3號",
    "Pos": {
      "lat": "24.641273623537",
      "lng": "121.276003383985"
    }
  },
  {
    "Title": "台灣基督長老教會山光教會（泰中）",
    "Type": "教會",
    "Area": "台灣 - 新竹縣",
    "Source": "台灣基督長老教會總會事務所",
    "PIC": "賴安淋 牧師",
    "Tel": "03-597-1644",
    "href": "https://church.oursweb.net/church.php?pkey=812262",
    "Addr": "303102新竹縣湖口鄉鳳山村勝利路二段254號",
    "Pos": {
      "lat": "24.8586339",
      "lng": "121.0201040"
    }
  },
  {
    "Title": "台灣基督長老教會水田教會",
    "Type": "教會",
    "Area": "台灣 - 新竹縣",
    "Source": "台灣基督長老教會總會事務所",
    "PIC": "黃志宏 牧師",
    "Tel": "03-584-1852",
    "href": "https://church.oursweb.net/church.php?pkey=812431",
    "Addr": "313002新竹縣尖石鄉新樂村7鄰193-1號",
    "Pos": {
      "lat": "24.7222548",
      "lng": "121.27408130000003"
    }
  },
  {
    "Title": "台灣基督長老教會司馬庫斯教會",
    "Type": "教會",
    "Area": "台灣 - 新竹縣",
    "Source": "台灣基督長老教會總會事務所",
    "PIC": "亞拉.比呼 牧師",
    "Tel": "03-584-7622",
    "href": "https://church.oursweb.net/church.php?pkey=812514",
    "Addr": "313208新竹縣尖石鄉玉峰村14鄰1號",
    "Pos": {
      "lat": "24.579256292073374",
      "lng": "121.33326501321415"
    }
  },
  {
    "Title": "湖口浸信會",
    "Type": "教會",
    "Area": "台灣 - 新竹縣",
    "Source": "中華基督教浸信會聯會",
    "PIC": "林東尼 牧師",
    "Tel": "03-599-0445",
    "href": "https://church.oursweb.net/church.php?pkey=812534",
    "Addr": "303031新竹縣湖口鄉民生街152號",
    "Pos": {
      "lat": "24.9038719",
      "lng": "121.048002"
    }
  },
  {
    "Title": "台灣基督長老教會新埔教會",
    "Type": "教會",
    "Area": "台灣 - 新竹縣",
    "Source": "台灣基督長老教會總會事務所",
    "PIC": "呂哲毅 傳道師",
    "Tel": "03-588-2304",
    "href": "https://church.oursweb.net/church.php?pkey=812662",
    "Addr": "305045新竹縣新埔鎮和平街38號",
    "Pos": {
      "lat": "24.8382160",
      "lng": "121.0089820"
    }
  },
  {
    "Title": "新豐崇真堂",
    "Type": "教會",
    "Area": "台灣 - 新竹縣",
    "Source": "304034新竹縣新豐鄉員山村精工路28號",
    "PIC": "孫世淦",
    "Tel": "03-559-7691",
    "href": "https://church.oursweb.net/church.php?pkey=812699",
    "Addr": "304034新竹縣新豐鄉員山村精工路28號",
    "Pos": {
      "lat": "24.8755850",
      "lng": "120.9990470"
    }
  },
  {
    "Title": "台灣基督長老教會義興教會",
    "Type": "教會",
    "Area": "台灣 - 新竹縣",
    "Source": "台灣基督長老教會總會事務所",
    "PIC": "亞崴．尤命 傳道師",
    "Tel": "03-584-2082",
    "href": "https://church.oursweb.net/church.php?pkey=812754",
    "Addr": "313002新竹縣尖石鄉義興8鄰24-1號",
    "Pos": {
      "lat": "24.6861292",
      "lng": "121.1767658"
    }
  },
  {
    "Title": "台灣基督長老教會嵨瀨教會",
    "Type": "教會",
    "Area": "台灣 - 新竹縣",
    "Source": "台灣基督長老教會總會事務所",
    "PIC": "烏杜夫．勒巴克 牧師",
    "Tel": "03-585-6234",
    "href": "https://church.oursweb.net/church.php?pkey=812914",
    "Addr": "311002新竹縣五峰鄉桃山村6鄰108號",
    "Pos": {
      "lat": "24.574153",
      "lng": "121.105385"
    }
  },
  {
    "Title": "台灣基督長老教會福堂教會",
    "Type": "教會",
    "Area": "台灣 - 新竹縣",
    "Source": "台灣基督長老教會總會事務所",
    "PIC": "哈告．伍道 牧師",
    "Tel": "03-584-1724",
    "href": "https://church.oursweb.net/church.php?pkey=812986",
    "Addr": "313303新竹縣尖石鄉新樂村8鄰10號",
    "Pos": {
      "lat": "24.7360340",
      "lng": "121.2392290"
    }
  },
  {
    "Title": "台灣基督長老教會錦屏教會",
    "Type": "教會",
    "Area": "台灣 - 新竹縣",
    "Source": "台灣基督長老教會總會事務所",
    "PIC": "林翠蓮 傳道師",
    "Tel": "03-584-2466",
    "href": "https://church.oursweb.net/church.php?pkey=813198",
    "Addr": "313001新竹縣尖石鄉錦屏村3鄰比麟6號",
    "Pos": {
      "lat": "24.7360340",
      "lng": "121.2392290"
    }
  },
  {
    "Title": "台灣基督長老教會望愛教會",
    "Type": "教會",
    "Area": "台灣 - 新竹縣",
    "Source": "台灣基督長老教會總會事務所",
    "PIC": "蘇盡女 牧師",
    "Tel": "03-596-3614",
    "href": "https://church.oursweb.net/church.php?pkey=813452",
    "Addr": "310004新竹縣竹東鎮仁愛路238號",
    "Pos": {
      "lat": "24.7353480",
      "lng": "121.0908100"
    }
  },
  {
    "Title": "基督教峨眉教會",
    "Type": "教會",
    "Area": "台灣 - 新竹縣",
    "Source": "315001新竹縣峨眉鄉峨眉街18號7樓",
    "PIC": "楊宗勇 牧師",
    "Tel": "03-580-0667",
    "href": "https://church.oursweb.net/church.php?pkey=813685",
    "Addr": "315001新竹縣峨眉鄉峨眉街18號7樓",
    "Pos": {
      "lat": "24.6886857",
      "lng": "121.0191535"
    }
  },
  {
    "Title": "台灣基督長老教會泰崗教會",
    "Type": "教會",
    "Area": "台灣 - 新竹縣",
    "Source": "台灣基督長老教會總會事務所",
    "PIC": "張保羅 牧師",
    "Tel": "03-584-7304",
    "href": "https://church.oursweb.net/church.php?pkey=813745",
    "Addr": "313004新竹縣尖石鄉秀巒村泰崗7鄰40-1號",
    "Pos": {
      "lat": "24.641273623537",
      "lng": "121.276003383985"
    }
  },
  {
    "Title": "台灣基督長老教會馬里光教會",
    "Type": "教會",
    "Area": "台灣 - 新竹縣",
    "Source": "台灣基督長老教會總會事務所",
    "PIC": "督魯安．慕妮 牧師",
    "Tel": "03-584-7286",
    "href": "https://church.oursweb.net/church.php?pkey=813911",
    "Addr": "313005新竹縣尖石鄉玉峰村6鄰41號",
    "Pos": {
      "lat": "24.653882",
      "lng": "121.315509"
    }
  },
  {
    "Title": "台灣基督長老教會勒俄腊教會",
    "Type": "教會",
    "Area": "台灣 - 新竹縣",
    "Source": "",
    "PIC": "曾永健 牧師",
    "Tel": "03-585-1144",
    "href": "https://church.oursweb.net/church.php?pkey=813966",
    "Addr": "",
    "Pos": {}
  },
  {
    "Title": "基督教主恩一心堂",
    "Type": "教會",
    "Area": "台灣 - 新竹縣",
    "Source": "302008新竹縣竹北市三民路361巷2弄23號",
    "PIC": "陳更新",
    "Tel": "035-514834",
    "href": "https://church.oursweb.net/church.php?pkey=814043",
    "Addr": "302008新竹縣竹北市三民路361巷2弄23號",
    "Pos": {
      "lat": "24.8345690",
      "lng": "121.0183470"
    }
  },
  {
    "Title": "台灣基督長老教會梅花教會",
    "Type": "教會",
    "Area": "台灣 - 新竹縣",
    "Source": "台灣基督長老教會總會事務所",
    "PIC": "莉慕苡．哈用 牧師",
    "Tel": "03-584-2351",
    "href": "https://church.oursweb.net/church.php?pkey=814249",
    "Addr": "313001新竹縣尖石鄉梅花村4鄰95-1號",
    "Pos": {
      "lat": "24.7055010271518",
      "lng": "121.202007405742"
    }
  },
  {
    "Title": "竹東小組教會",
    "Type": "教會",
    "Area": "台灣 - 新竹縣",
    "Source": "310006新竹縣竹東鎮東寧路二段72號",
    "PIC": "吳秀君 牧師",
    "Tel": "03-595-2468",
    "href": "https://church.oursweb.net/church.php?pkey=815722",
    "Addr": "310006新竹縣竹東鎮東寧路二段72號",
    "Pos": {
      "lat": "24.7309568",
      "lng": "121.0904869"
    }
  },
  {
    "Title": "竹東鎮召會",
    "Type": "教會",
    "Area": "台灣 - 新竹縣",
    "Source": "台灣眾召會臺北總執事室",
    "PIC": "",
    "Tel": "03-595-6126",
    "href": "https://church.oursweb.net/church.php?pkey=815820",
    "Addr": "310004新竹縣竹東鎮杞林路38號",
    "Pos": {
      "lat": "24.7351630",
      "lng": "121.0920200"
    }
  },
  {
    "Title": "寶山鄉召會",
    "Type": "教會",
    "Area": "台灣 - 新竹縣",
    "Source": "台灣眾召會臺北總執事室",
    "PIC": "",
    "Tel": "03-520-0305",
    "href": "https://church.oursweb.net/church.php?pkey=815823",
    "Addr": "308001新竹縣寶山鄉雙園路二段246號",
    "Pos": {
      "lat": "24.7666704",
      "lng": "120.99266969999996"
    }
  },
  {
    "Title": "台灣基督長老教會關西教會",
    "Type": "教會",
    "Area": "台灣 - 新竹縣",
    "Source": "台灣基督長老教會總會事務所",
    "PIC": "吳宜璋 傳道師",
    "Tel": "03-587-1478",
    "href": "https://church.oursweb.net/church.php?pkey=813310",
    "Addr": "306001新竹縣關西鎮老街26號",
    "Pos": {
      "lat": "24.7931360",
      "lng": "121.1749990"
    }
  },
  {
    "Title": "台灣基督長老教會茅圃教會",
    "Type": "教會",
    "Area": "台灣 - 新竹縣",
    "Source": "台灣基督長老教會總會事務所",
    "PIC": "林韋恩牧師",
    "Tel": "03-585-1137",
    "href": "https://church.oursweb.net/church.php?pkey=813624",
    "Addr": "311001新竹縣五峰鄉大隘村21鄰411號",
    "Pos": {
      "lat": "24.622643162380",
      "lng": "121.091709774621"
    }
  },
  {
    "Title": "台灣基督長老教會桃山教會",
    "Type": "教會",
    "Area": "台灣 - 新竹縣",
    "Source": "台灣基督長老教會總會事務所",
    "PIC": "巴燕.尤命 牧師",
    "Tel": "03-585-6625",
    "href": "https://church.oursweb.net/church.php?pkey=813728",
    "Addr": "311002新竹縣五峰鄉桃山村3鄰41號",
    "Pos": {
      "lat": "24.596217",
      "lng": "121.108781"
    }
  },
  {
    "Title": "財團法人基督教中華聖潔會",
    "Type": "宗派中心",
    "Area": "台灣 - 新竹縣",
    "Source": "hwh007.tw@yahoo.com.tw",
    "PIC": "劉修泉 牧師",
    "Tel": "03-588-4947",
    "href": "https://church.oursweb.net/church.php?pkey=813893",
    "Addr": "305043新竹縣新埔鎮褒忠路87號",
    "Pos": {
      "lat": "24.8357973",
      "lng": "121.0361692"
    }
  },
  {
    "Title": "台灣基督長老教會馬武督教會",
    "Type": "教會",
    "Area": "台灣 - 新竹縣",
    "Source": "台灣基督長老教會總會事務所",
    "PIC": "攸婭．弗奈依 傳道師",
    "Tel": "03-547-8778",
    "href": "https://church.oursweb.net/church.php?pkey=813913",
    "Addr": "306009新竹縣關西鎮錦山里10鄰113號",
    "Pos": {
      "lat": "24.7360340",
      "lng": "121.2392290"
    }
  },
  {
    "Title": "中華聖潔會竹東教會",
    "Type": "教會",
    "Area": "台灣 - 新竹縣",
    "Source": "財團法人基督教中華聖潔會",
    "PIC": "林正雄 牧師",
    "Tel": "03-596-5582",
    "href": "https://church.oursweb.net/church.php?pkey=814035",
    "Addr": "310004新竹縣竹東鎮中山路31號",
    "Pos": {
      "lat": "24.7338790",
      "lng": "121.0917290"
    }
  },
  {
    "Title": "中華基督教信義會寶山勝利堂",
    "Type": "教會",
    "Area": "台灣 - 新竹縣",
    "Source": "財團法人台灣省中華基督教信義會",
    "PIC": "黃文棋 傳道",
    "Tel": "03-520-9527",
    "href": "https://church.oursweb.net/church.php?pkey=814212",
    "Addr": "308001新竹縣寶山鄉雙溪村雙園路二段260巷1弄15號",
    "Pos": {
      "lat": "24.7664207",
      "lng": "120.99184930000001"
    }
  },
  {
    "Title": "新豐磐石浸信會",
    "Type": "教會",
    "Area": "台灣 - 新竹縣",
    "Source": "中華基督教浸信會聯會",
    "PIC": "王獻堂",
    "Tel": "03-559-0005",
    "href": "https://church.oursweb.net/church.php?pkey=815657",
    "Addr": "304108新竹縣新豐鄉建興路二段710號",
    "Pos": {
      "lat": "24.898558",
      "lng": "120.9873285"
    }
  },
  {
    "Title": "竹北市召會",
    "Type": "教會",
    "Area": "台灣 - 新竹縣",
    "Source": "台灣眾召會臺北總執事室",
    "PIC": "",
    "Tel": "03-550-3601",
    "href": "https://church.oursweb.net/church.php?pkey=815819",
    "Addr": "302052新竹縣竹北市嘉豐七街26號",
    "Pos": {
      "lat": "24.8126996",
      "lng": "121.03315880000002"
    }
  },
  {
    "Title": "湖口鄉召會",
    "Type": "教會",
    "Area": "台灣 - 新竹縣",
    "Source": "台灣眾召會臺北總執事室",
    "PIC": "",
    "Tel": "03-590-1054",
    "href": "https://church.oursweb.net/church.php?pkey=815822",
    "Addr": "303125新竹縣湖口鄉信勢村信全街27巷21號",
    "Pos": {
      "lat": "24.899449355344967",
      "lng": "121.04125264596325"
    }
  },
  {
    "Title": "台灣基督長老教會六家教會",
    "Type": "教會",
    "Area": "台灣 - 新竹縣",
    "Source": "台灣基督長老教會總會事務所",
    "PIC": "陳嘉靜 傳道師",
    "Tel": "03-550-6101",
    "href": "https://church.oursweb.net/church.php?pkey=819585",
    "Addr": "302054新竹縣竹北市六家五路一段189號",
    "Pos": {
      "lat": "24.8092341",
      "lng": "121.0258477"
    }
  },
  {
    "Title": "基督教新豐以馬內利福音中心",
    "Type": "教會",
    "Area": "台灣 - 新竹縣",
    "Source": "304109新竹縣新豐鄉仁愛街64號",
    "PIC": "",
    "Tel": "03-559-9200",
    "href": "https://church.oursweb.net/church.php?pkey=819588",
    "Addr": "304109新竹縣新豐鄉仁愛街64號",
    "Pos": {
      "lat": "24.8375710",
      "lng": "121.0110810"
    }
  },
  {
    "Title": "竹東宣教祝福教會",
    "Type": "教會",
    "Area": "台灣 - 新竹縣",
    "Source": "310001新竹縣竹東鎮榮樂街146號",
    "PIC": "郭榮德",
    "Tel": "03-594-5943",
    "href": "https://church.oursweb.net/church.php?pkey=819591",
    "Addr": "310001新竹縣竹東鎮榮樂街146號",
    "Pos": {
      "lat": "24.7409015",
      "lng": "121.0869365"
    }
  },
  {
    "Title": "台灣基督長老教會拿互依教會",
    "Type": "教會",
    "Area": "台灣 - 新竹縣",
    "Source": "台灣基督長老教會總會事務所",
    "PIC": "黃世雄 牧師",
    "Tel": "03-584-2575",
    "href": "https://church.oursweb.net/church.php?pkey=819593",
    "Addr": "313012新竹縣尖石鄉嘉樂村3鄰155號",
    "Pos": {
      "lat": "24.7060127",
      "lng": "121.2031326"
    }
  },
  {
    "Title": "基督教客家福音協會",
    "Type": "宣教福音",
    "Area": "台灣 - 新竹縣",
    "Source": "hakka.chea@yahoo.com.tw",
    "PIC": "白美月 牧師",
    "Tel": "03-594-5546",
    "href": "https://church.oursweb.net/church.php?pkey=820032",
    "Addr": "310015新竹縣竹東鎮自強路58號1樓",
    "Pos": {
      "lat": "24.7479748",
      "lng": "121.0813917"
    }
  },
  {
    "Title": "新竹純福音教會",
    "Type": "教會",
    "Area": "台灣 - 新竹縣",
    "Source": "財團法人基督教純福音教會台灣總會",
    "PIC": "張漢業 牧師",
    "Tel": "03-657-6714",
    "href": "https://church.oursweb.net/church.php?pkey=821388",
    "Addr": "302044新竹縣竹北市自強南路8號3樓",
    "Pos": {
      "lat": "24.8194330",
      "lng": "121.0276820"
    }
  },
  {
    "Title": "關西鎮召會",
    "Type": "教會",
    "Area": "台灣 - 新竹縣",
    "Source": "台灣眾召會臺北總執事室",
    "PIC": "",
    "Tel": "03-587-7977",
    "href": "https://church.oursweb.net/church.php?pkey=823096",
    "Addr": "306001新竹縣關西鎮正義路105-6號",
    "Pos": {
      "lat": "24.7943851028487",
      "lng": "121.1756219999653"
    }
  },
  {
    "Title": "台灣基督長老教會關東橋教會",
    "Type": "教會",
    "Area": "台灣 - 新竹縣",
    "Source": "台灣基督長老教會總會事務所",
    "PIC": "陳建上 傳道師",
    "Tel": "03-582-2879",
    "href": "https://church.oursweb.net/church.php?pkey=823105",
    "Addr": "310019新竹縣竹東鎮中興路4段890號2F",
    "Pos": {
      "lat": "24.778556",
      "lng": "121.03118799999993"
    }
  },
  {
    "Title": "真耶穌教會關東橋教會",
    "Type": "教會",
    "Area": "台灣 - 新竹縣",
    "Source": "財團法人真耶穌教會台灣總會",
    "PIC": "",
    "Tel": "03-582-6071",
    "href": "https://church.oursweb.net/church.php?pkey=823108",
    "Addr": "310019新竹縣竹東鎮中興路四段1042巷9號",
    "Pos": {
      "lat": "24.7809444",
      "lng": "121.0271153"
    }
  },
  {
    "Title": "台灣基督長老教會梅后蔓教會",
    "Type": "教會",
    "Area": "台灣 - 新竹縣",
    "Source": "台灣基督長老教會總會事務所",
    "PIC": "何智暐 傳道師",
    "Tel": "03-585-1222",
    "href": "https://church.oursweb.net/church.php?pkey=823110",
    "Addr": "311001新竹縣五峰鄉花園村7鄰156號",
    "Pos": {
      "lat": "24.64706629199792",
      "lng": "121.15214684061431"
    }
  },
  {
    "Title": "內灣天人岩屋",
    "Type": "其他",
    "Area": "台灣 - 新竹縣",
    "Source": "99bike@gmail.com",
    "PIC": "黃天人",
    "Tel": "03-593-6070",
    "href": "https://church.oursweb.net/church.php?pkey=817777",
    "Addr": "312002新竹縣橫山鄉豐田村2鄰油羅49號",
    "Pos": {
      "lat": "24.706545",
      "lng": "121.157806"
    }
  },
  {
    "Title": "新恩全人成長中心（佈道所）",
    "Type": "教會",
    "Area": "台灣 - 新竹縣",
    "Source": "302004新竹縣竹北市新民街222巷7號",
    "PIC": "章文箴",
    "Tel": "03-555-9956",
    "href": "https://church.oursweb.net/church.php?pkey=819587",
    "Addr": "302004新竹縣竹北市新民街222巷7號",
    "Pos": {
      "lat": "24.8429727",
      "lng": "121.0004810"
    }
  },
  {
    "Title": "芎林福音中心",
    "Type": "教會",
    "Area": "台灣 - 新竹縣",
    "Source": "307002新竹縣芎林鄉文衡路370號",
    "PIC": "曾盛泉",
    "Tel": "03-592-5828",
    "href": "https://church.oursweb.net/church.php?pkey=819590",
    "Addr": "307002新竹縣芎林鄉文衡路370號",
    "Pos": {
      "lat": "24.7714493",
      "lng": "121.08416699999998"
    }
  },
  {
    "Title": "基督教福音廣傳會",
    "Type": "教會",
    "Area": "台灣 - 新竹縣",
    "Source": "hsiao.chang@msa.hinet.net",
    "PIC": "蕭春常",
    "Tel": "03-512-0952",
    "href": "https://church.oursweb.net/church.php?pkey=819592",
    "Addr": "307001新竹縣芎林鄉下山村5鄰下山91號3F-3",
    "Pos": {
      "lat": "24.800097",
      "lng": "121.06932600000005"
    }
  },
  {
    "Title": "台灣基督長老教會客家宣教中會",
    "Type": "宗派中心",
    "Area": "台灣 - 新竹縣",
    "Source": "台灣基督長老教會總會事務所",
    "PIC": "",
    "Tel": "03-517-0655",
    "href": "https://church.oursweb.net/church.php?pkey=819829",
    "Addr": "306002新竹縣關西鎮中央街87號1樓",
    "Pos": {
      "lat": "24.7945693",
      "lng": "121.17326179999998"
    }
  },
  {
    "Title": "台灣基督長老教會山崎教會",
    "Type": "教會",
    "Area": "台灣 - 新竹縣",
    "Source": "台灣基督長老教會總會事務所",
    "PIC": "凃淑容",
    "Tel": "03-557-5100",
    "href": "https://church.oursweb.net/church.php?pkey=821035",
    "Addr": "304033新竹縣新豐鄉康泰路40之5號",
    "Pos": {
      "lat": "24.870209707995787",
      "lng": "120.98907676903377"
    }
  },
  {
    "Title": "中華天國門徒訓練宣教會",
    "Type": "教育訓練",
    "Area": "台灣 - 新竹縣",
    "Source": "renhailiu33@yahoo.com.tw",
    "PIC": "劉仁海",
    "Tel": "03-592-7295",
    "href": "https://church.oursweb.net/church.php?pkey=821532",
    "Addr": "307051新竹縣芎林鄉下山村1鄰10號",
    "Pos": {
      "lat": "24.7971969",
      "lng": "121.0625467"
    }
  },
  {
    "Title": "芎林鄉召會",
    "Type": "教會",
    "Area": "台灣 - 新竹縣",
    "Source": "台灣眾召會臺北總執事室",
    "PIC": "",
    "Tel": "03-512-1757",
    "href": "https://church.oursweb.net/church.php?pkey=823101",
    "Addr": "307001新竹縣芎林鄉綠獅三街111號",
    "Pos": {
      "lat": "24.7827745",
      "lng": "121.0730436"
    }
  },
  {
    "Title": "竹東懷恩教會",
    "Type": "教會",
    "Area": "台灣 - 新竹縣",
    "Source": "大溪懷恩教會",
    "PIC": "劉秀櫻 牧師",
    "Tel": "03-510-4215",
    "href": "https://church.oursweb.net/church.php?pkey=823107",
    "Addr": "310011新竹縣竹東鎮南寧路139號",
    "Pos": {
      "lat": "24.7441486",
      "lng": "121.08406250000007"
    }
  },
  {
    "Title": "真耶穌教會竹東教會",
    "Type": "教會",
    "Area": "台灣 - 新竹縣",
    "Source": "財團法人真耶穌教會台灣總會",
    "PIC": "",
    "Tel": "03-595-5342",
    "href": "https://church.oursweb.net/church.php?pkey=823109",
    "Addr": "310002新竹縣竹東鎮大明路305號",
    "Pos": {
      "lat": "24.7333293",
      "lng": "121.09872330000007"
    }
  },
  {
    "Title": "台灣基督長老教會樂賀安教會",
    "Type": "教會",
    "Area": "台灣 - 新竹縣",
    "Source": "台灣基督長老教會總會事務所",
    "PIC": "攸醬．給匠 傳道師",
    "Tel": "",
    "href": "https://church.oursweb.net/church.php?pkey=823112",
    "Addr": "311001新竹縣五峰鄉花園村2鄰45號",
    "Pos": {
      "lat": "24.6526957",
      "lng": "121.1597686"
    }
  },
  {
    "Title": "真耶穌教會五峰教會",
    "Type": "教會",
    "Area": "台灣 - 新竹縣",
    "Source": "財團法人真耶穌教會台灣總會",
    "PIC": "",
    "Tel": "03-585-1161",
    "href": "https://church.oursweb.net/church.php?pkey=823115",
    "Addr": "311001新竹縣五峰鄉大隘村10鄰191號",
    "Pos": {
      "lat": "24.6288312",
      "lng": "121.11974018220899"
    }
  },
  {
    "Title": "真耶穌教會清泉教會",
    "Type": "教會",
    "Area": "台灣 - 新竹縣",
    "Source": "財團法人真耶穌教會台灣總會",
    "PIC": "",
    "Tel": "03-585-6214",
    "href": "https://church.oursweb.net/church.php?pkey=823117",
    "Addr": "311002新竹縣五峰鄉桃山村清泉14鄰237號",
    "Pos": {
      "lat": "24.578772638254506",
      "lng": "121.10601779762267"
    }
  },
  {
    "Title": "真耶穌教會義興教會",
    "Type": "教會",
    "Area": "台灣 - 新竹縣",
    "Source": "財團法人真耶穌教會台灣總會",
    "PIC": "",
    "Tel": "03-584-2082",
    "href": "https://church.oursweb.net/church.php?pkey=823126",
    "Addr": "313002新竹縣尖石鄉義興村9鄰馬胎68號",
    "Pos": {
      "lat": "24.68938",
      "lng": "121.178041"
    }
  },
  {
    "Title": "真耶穌教會錦屏教會",
    "Type": "教會",
    "Area": "台灣 - 新竹縣",
    "Source": "財團法人真耶穌教會台灣總會",
    "PIC": "",
    "Tel": "03-584-2179",
    "href": "https://church.oursweb.net/church.php?pkey=823128",
    "Addr": "313001新竹縣尖石鄉錦屏村比麟45號",
    "Pos": {
      "lat": "24.695755563108175",
      "lng": "121.2277811588955"
    }
  },
  {
    "Title": "台灣世界展望會五尖中心",
    "Type": "社會關懷",
    "Area": "台灣 - 新竹縣",
    "Source": "台灣世界展望會",
    "PIC": "",
    "Tel": "03-596-6684, 03-596-4452, 03-5953201",
    "href": "https://church.oursweb.net/church.php?pkey=825000",
    "Addr": "310006新竹縣竹東鎮大林路217號",
    "Pos": {
      "lat": "24.7279184",
      "lng": "121.0874607"
    }
  },
  {
    "Title": "二重靈糧堂",
    "Type": "教會",
    "Area": "台灣 - 新竹縣",
    "Source": "靈糧全球使徒性網絡",
    "PIC": "蔡金龍 牧師",
    "Tel": "03-582-6151",
    "href": "https://church.oursweb.net/church.php?pkey=826246",
    "Addr": "310021新竹縣竹東鎮光明路95號",
    "Pos": {
      "lat": "24.7689483",
      "lng": "121.05709909999996"
    }
  },
  {
    "Title": "十興家庭教會",
    "Type": "教會",
    "Area": "台灣 - 新竹縣",
    "Source": "http://101.haleluya.cc/web/455567/homechuch",
    "PIC": "程格非 姊妹",
    "Tel": "03-658-5165",
    "href": "https://church.oursweb.net/church.php?pkey=827149",
    "Addr": "302059新竹縣竹北市莊敬北路146號3樓",
    "Pos": {
      "lat": "24.8259825",
      "lng": "121.0248074"
    }
  },
  {
    "Title": "中華基督教信義會竹北勝利堂",
    "Type": "教會",
    "Area": "台灣 - 新竹縣",
    "Source": "財團法人台灣省中華基督教信義會",
    "PIC": "李四海 牧師",
    "Tel": "03-658-5220",
    "href": "https://church.oursweb.net/church.php?pkey=827818",
    "Addr": "302052新竹縣竹北市復興二路193號4F",
    "Pos": {
      "lat": "24.8110055",
      "lng": "121.03530410000008"
    }
  },
  {
    "Title": "基層福音寶山福音中心",
    "Type": "教會",
    "Area": "台灣 - 新竹縣",
    "Source": "台灣基層福音差傳會",
    "PIC": "",
    "Tel": "",
    "href": "https://church.oursweb.net/church.php?pkey=828059",
    "Addr": "308001新竹縣寶山鄉雙園路2段260巷1弄15號",
    "Pos": {
      "lat": "24.7664207",
      "lng": "120.99184930000001"
    }
  },
  {
    "Title": "台灣基督長老教會達谷婻教會",
    "Type": "教會",
    "Area": "台灣 - 新竹縣",
    "Source": "台灣基督長老教會總會事務所",
    "PIC": "斐福宜．阿拜 牧師",
    "Tel": "035-852-033",
    "href": "https://church.oursweb.net/church.php?pkey=823111",
    "Addr": "311001新竹縣五峰鄉竹林村2鄰34號",
    "Pos": {
      "lat": "24.63082",
      "lng": "121.15322"
    }
  },
  {
    "Title": "真耶穌教會花園教會",
    "Type": "教會",
    "Area": "台灣 - 新竹縣",
    "Source": "財團法人真耶穌教會台灣總會",
    "PIC": "",
    "Tel": "03-585-1485",
    "href": "https://church.oursweb.net/church.php?pkey=823114",
    "Addr": "311001新竹縣五峰鄉花園村6鄰126-1號",
    "Pos": {
      "lat": "24.6449931",
      "lng": "121.1517515"
    }
  },
  {
    "Title": "真耶穌教會桃山教會",
    "Type": "教會",
    "Area": "台灣 - 新竹縣",
    "Source": "財團法人真耶穌教會台灣總會",
    "PIC": "",
    "Tel": "03-585-6355",
    "href": "https://church.oursweb.net/church.php?pkey=823116",
    "Addr": "311002新竹縣五峰鄉桃山村1鄰6號",
    "Pos": {
      "lat": "24.599119323699018",
      "lng": "121.10981600265501"
    }
  },
  {
    "Title": "改革宗長老教會新樂教會",
    "Type": "教會",
    "Area": "台灣 - 新竹縣",
    "Source": "基督教改革宗長老會",
    "PIC": "雲瑞金",
    "Tel": "03-594-2065",
    "href": "https://church.oursweb.net/church.php?pkey=823125",
    "Addr": "313002新竹縣尖石鄉新樂村2鄰水田53-1號",
    "Pos": {
      "lat": "24.7431629",
      "lng": "121.26127309999993"
    }
  },
  {
    "Title": "真耶穌教會尖石教會",
    "Type": "教會",
    "Area": "台灣 - 新竹縣",
    "Source": "財團法人真耶穌教會台灣總會",
    "PIC": "",
    "Tel": "03-584-1708",
    "href": "https://church.oursweb.net/church.php?pkey=823127",
    "Addr": "313001新竹縣尖石鄉嘉樂村5鄰麥樹仁27號",
    "Pos": {
      "lat": "24.7060127",
      "lng": "121.2031326"
    }
  },
  {
    "Title": "基督復臨安息日會義興教會",
    "Type": "教會",
    "Area": "台灣 - 新竹縣",
    "Source": "基督復臨安息日會台灣區會",
    "PIC": "陳武義",
    "Tel": "035-841-389",
    "href": "https://church.oursweb.net/church.php?pkey=823129",
    "Addr": "313002新竹縣尖石鄉義興村1鄰10號",
    "Pos": {
      "lat": "24.689555",
      "lng": "121.177815"
    }
  },
  {
    "Title": "社團法人台灣推喇奴爸爸學校推動協會",
    "Type": "社會關懷",
    "Area": "台灣 - 新竹縣",
    "Source": "http://www.fatherschool.org.tw/",
    "PIC": "黃贊彥",
    "Tel": "",
    "href": "https://church.oursweb.net/church.php?pkey=825654",
    "Addr": "302048新竹縣竹北市光明9路8之3號7樓",
    "Pos": {
      "lat": "24.8229617",
      "lng": "121.0140817"
    }
  },
  {
    "Title": "竹東靈糧堂",
    "Type": "教會",
    "Area": "台灣 - 新竹縣",
    "Source": "靈糧全球使徒性網絡",
    "PIC": "馬永昌 牧師",
    "Tel": "03-595-5251",
    "href": "https://church.oursweb.net/church.php?pkey=826823",
    "Addr": "310007新竹縣竹東鎮東林路48號2樓",
    "Pos": {
      "lat": "24.736926",
      "lng": "121.089831"
    }
  },
  {
    "Title": "CAN基督國度事奉教會",
    "Type": "教會",
    "Area": "台灣 - 新竹縣",
    "Source": "can_taiwan@yahoo.com.tw",
    "PIC": "郭華冠 牧師",
    "Tel": "03-558-7775",
    "href": "https://church.oursweb.net/church.php?pkey=827787",
    "Addr": "302048新竹縣竹北市光明九路139號3樓",
    "Pos": {
      "lat": "24.8256944",
      "lng": "121.00884210000004"
    }
  },
  {
    "Title": "頌揚基督宣道會竹北教會",
    "Type": "教會",
    "Area": "台灣 - 新竹縣",
    "Source": "頌揚基督宣道會",
    "PIC": "",
    "Tel": "03-550-8754",
    "href": "https://church.oursweb.net/church.php?pkey=828058",
    "Addr": "302052新竹縣竹北市嘉豐南路一段5號",
    "Pos": {
      "lat": "24.8063708",
      "lng": "121.0314333"
    }
  },
  {
    "Title": "竹北台福基督教會",
    "Type": "教會",
    "Area": "台灣 - 新竹縣",
    "Source": "台福基督教會總會台灣辦事處",
    "PIC": "張國強 牧師",
    "Tel": "03-668-5022",
    "href": "https://church.oursweb.net/church.php?pkey=828635",
    "Addr": "302053新竹縣竹北市六家五路二段128號1樓",
    "Pos": {
      "lat": "24.8028834",
      "lng": "121.036201"
    }
  },
  {
    "Title": "北埔鄉召會",
    "Type": "教會",
    "Area": "台灣 - 新竹縣",
    "Source": "台灣眾召會臺北總執事室",
    "PIC": "",
    "Tel": "03-580-5755",
    "href": "https://church.oursweb.net/church.php?pkey=828667",
    "Addr": "314004新竹縣北埔鄉埔尾村埔心街93號",
    "Pos": {
      "lat": "24.7037883",
      "lng": "121.04988879999996"
    }
  },
  {
    "Title": "基督徒敬拜中心新竹分會",
    "Type": "教會",
    "Area": "台灣 - 新竹縣",
    "Source": "基督徒敬拜中心",
    "PIC": "呂美惠",
    "Tel": "03-657-7981",
    "href": "https://church.oursweb.net/church.php?pkey=828936",
    "Addr": "302044新竹縣竹北市莊敬五街118號",
    "Pos": {
      "lat": "24.824318",
      "lng": "121.0273343"
    }
  },
  {
    "Title": "新竹錫安堂寶山分堂",
    "Type": "教會",
    "Area": "台灣 - 新竹縣",
    "Source": "新竹錫安堂",
    "PIC": "林偉知 牧師",
    "Tel": "0930-027-072",
    "href": "https://church.oursweb.net/church.php?pkey=829387",
    "Addr": "308001新竹縣寶山鄉大雅二街32號",
    "Pos": {
      "lat": "24.7560103",
      "lng": "121.00722659999997"
    }
  },
  {
    "Title": "中華聖潔會新豐教會",
    "Type": "教會",
    "Area": "台灣 - 新竹縣",
    "Source": "財團法人基督教中華聖潔會",
    "PIC": "劉修泉 牧師",
    "Tel": "03-559-4007",
    "href": "https://church.oursweb.net/church.php?pkey=829490",
    "Addr": "304108新竹縣新豐鄉新庄路92號",
    "Pos": {
      "lat": "24.9022391",
      "lng": "120.98881970000002"
    }
  },
  {
    "Title": "竹東與神同行懷恩教會",
    "Type": "教會",
    "Area": "台灣 - 新竹縣",
    "Source": "大溪懷恩教會",
    "PIC": "陳啟清 傳道",
    "Tel": "",
    "href": "https://church.oursweb.net/church.php?pkey=829671",
    "Addr": "310007新竹縣竹東鎮東林路194巷8號",
    "Pos": {
      "lat": "24.7375518",
      "lng": "121.09515959999999"
    }
  },
  {
    "Title": "社團法人新竹縣愛鄰社區關懷協會",
    "Type": "社會關懷",
    "Area": "台灣 - 新竹縣",
    "Source": "新竹靈糧堂",
    "PIC": "",
    "Tel": "03-558-8577 ext 1219",
    "href": "https://church.oursweb.net/church.php?pkey=829711",
    "Addr": "302048新竹縣竹北市嘉勤南路86號",
    "Pos": {
      "lat": "24.821669",
      "lng": "121.01511759999994"
    }
  },
  {
    "Title": "社團法人新竹縣愛鄰社區關懷協會二重辦事處",
    "Type": "社會關懷",
    "Area": "台灣 - 新竹縣",
    "Source": "社團法人新竹縣愛鄰社區關懷協會",
    "PIC": "",
    "Tel": "03-582-6151",
    "href": "https://church.oursweb.net/church.php?pkey=829713",
    "Addr": "310016新竹縣竹東鎮二重里中央路78號",
    "Pos": {
      "lat": "24.7690288",
      "lng": "121.05685640000002"
    }
  },
  {
    "Title": "充滿教會",
    "Type": "教會",
    "Area": "台灣 - 新竹縣",
    "Source": "https://www.facebook.com/groups/314574241898450/",
    "PIC": "",
    "Tel": "03-595-5443",
    "href": "https://church.oursweb.net/church.php?pkey=829733",
    "Addr": "310001新竹縣竹東鎮朝陽路55號2樓",
    "Pos": {
      "lat": "24.7424462",
      "lng": "121.0859074"
    }
  },
  {
    "Title": "橫山鄉召會",
    "Type": "教會",
    "Area": "台灣 - 新竹縣",
    "Source": "台灣眾召會臺北總執事室",
    "PIC": "",
    "Tel": "03-593-6587",
    "href": "https://church.oursweb.net/church.php?pkey=830747",
    "Addr": "312002新竹縣橫山鄉新興村新興街125號",
    "Pos": {
      "lat": "24.717079345898824",
      "lng": "121.14084425581973"
    }
  },
  {
    "Title": "台灣佳美生命建造協會",
    "Type": "教育訓練",
    "Area": "台灣 - 新竹縣",
    "Source": "wonderful.life857@gmail.com",
    "PIC": "",
    "Tel": "03-667-2071",
    "href": "https://church.oursweb.net/church.php?pkey=828524",
    "Addr": "302058新竹縣竹北市十興路二段82號4樓之2",
    "Pos": {
      "lat": "24.8244822",
      "lng": "121.0348239"
    }
  },
  {
    "Title": "新埔鎮召會",
    "Type": "教會",
    "Area": "台灣 - 新竹縣",
    "Source": "台灣眾召會臺北總執事室",
    "PIC": "",
    "Tel": "03-589-2254",
    "href": "https://church.oursweb.net/church.php?pkey=828666",
    "Addr": "305045新竹縣新埔鎮中正路279號",
    "Pos": {
      "lat": "24.827734684857113",
      "lng": "121.07893860555725"
    }
  },
  {
    "Title": "台灣基督長老教會八五山神愛教會",
    "Type": "教會",
    "Area": "台灣 - 新竹縣",
    "Source": "台灣基督長老教會總會事務所",
    "PIC": "Yaway Asin 黃雁葦 傳道師",
    "Tel": "03-511-1138",
    "href": "https://church.oursweb.net/church.php?pkey=828869",
    "Addr": "313002新竹縣尖石鄉新樂村10鄰62-5號",
    "Pos": {
      "lat": "24.7222548",
      "lng": "121.27408130000003"
    }
  },
  {
    "Title": "中華家庭方舟協會",
    "Type": "其他",
    "Area": "台灣 - 新竹縣",
    "Source": "homeark995@gmail.com",
    "PIC": "曾繼雄",
    "Tel": "03-667-6801",
    "href": "https://church.oursweb.net/church.php?pkey=829268",
    "Addr": "302050新竹縣竹北市自強三路11號5樓",
    "Pos": {
      "lat": "24.8186922",
      "lng": "121.01860069999998"
    }
  },
  {
    "Title": "台灣基督長老教會竹北教會六家禮拜堂",
    "Type": "教會",
    "Area": "台灣 - 新竹縣",
    "Source": "台灣基督長老教會新竹中會事務所",
    "PIC": "林坤麟 牧師",
    "Tel": "03-550-1584",
    "href": "https://church.oursweb.net/church.php?pkey=829425",
    "Addr": "302044新竹縣竹北市光明六路東一段255號10樓",
    "Pos": {
      "lat": "24.8206333",
      "lng": "121.02687470000001"
    }
  },
  {
    "Title": "竹北水漾家教會",
    "Type": "教會",
    "Area": "台灣 - 新竹縣",
    "Source": "ryscoachmaggie@gmail.com",
    "PIC": "錢美春",
    "Tel": "0958-009-272",
    "href": "https://church.oursweb.net/church.php?pkey=829506",
    "Addr": "302053新竹縣竹北市嘉豐十一路二段127巷15號2樓",
    "Pos": {
      "lat": "24.8070184",
      "lng": "121.03497279999999"
    }
  },
  {
    "Title": "竹北恩典城市",
    "Type": "教會",
    "Area": "台灣 - 新竹縣",
    "Source": "whynotjolin@gmail.com",
    "PIC": "黃均宇 弟兄",
    "Tel": "0970-702-468",
    "href": "https://church.oursweb.net/church.php?pkey=829686",
    "Addr": "302044新竹縣竹北市莊敬五街45-1號",
    "Pos": {
      "lat": "24.822299",
      "lng": "121.02628800000002"
    }
  },
  {
    "Title": "社團法人新竹縣愛鄰社區關懷協會新埔辦事處",
    "Type": "社會關懷",
    "Area": "台灣 - 新竹縣",
    "Source": "社團法人新竹縣愛鄰社區關懷協會",
    "PIC": "",
    "Tel": "03-588-7971",
    "href": "https://church.oursweb.net/church.php?pkey=829712",
    "Addr": "305045新竹縣新埔鎮中正路416巷9號",
    "Pos": {
      "lat": "24.828173",
      "lng": "121.0779824"
    }
  },
  {
    "Title": "社團法人新竹縣愛鄰社區關懷協會竹東辦事處",
    "Type": "社會關懷",
    "Area": "台灣 - 新竹縣",
    "Source": "社團法人新竹縣愛鄰社區關懷協會",
    "PIC": "",
    "Tel": "03-595-5251",
    "href": "https://church.oursweb.net/church.php?pkey=829714",
    "Addr": "310007新竹縣竹東鎮東林路48號5樓",
    "Pos": {
      "lat": "24.736926",
      "lng": "121.089831"
    }
  },
  {
    "Title": "竹北市召會縣政會所",
    "Type": "教會",
    "Area": "台灣 - 新竹縣",
    "Source": "台灣眾召會臺北總執事室",
    "PIC": "",
    "Tel": "03-550-3601",
    "href": "https://church.oursweb.net/church.php?pkey=829735",
    "Addr": "302005新竹縣竹北市縣政九路159號3樓",
    "Pos": {
      "lat": "24.828412",
      "lng": "121.01040799999998"
    }
  },
  {
    "Title": "佳美基督教會",
    "Type": "教會",
    "Area": "台灣 - 新竹縣",
    "Source": "wonderful.life857@gmail.com",
    "PIC": "",
    "Tel": "03-667-2071",
    "href": "https://church.oursweb.net/church.php?pkey=830983",
    "Addr": "302058新竹縣竹北市十興路二段82號4樓之2",
    "Pos": {
      "lat": "24.8244822",
      "lng": "121.03482389999999"
    }
  },
  {
    "Title": "中華基督教關西上林教會",
    "Type": "教會",
    "Area": "台灣 - 新竹縣",
    "Source": "",
    "PIC": "范揚碧 傳道",
    "Tel": "03-586-0199",
    "href": "https://church.oursweb.net/church.php?pkey=831209",
    "Addr": "",
    "Pos": {}
  },
  {
    "Title": "新埔靈糧堂",
    "Type": "教會",
    "Area": "台灣 - 新竹縣",
    "Source": "靈糧全球使徒性網絡",
    "PIC": "吳品杰 傳道",
    "Tel": "03-588-0301",
    "href": "https://church.oursweb.net/church.php?pkey=831309",
    "Addr": "305045新竹縣新埔鎮中正路416巷11號",
    "Pos": {
      "lat": "24.8282213",
      "lng": "121.0779938"
    }
  },
  {
    "Title": "新豐鄉召會",
    "Type": "教會",
    "Area": "台灣 - 新竹縣",
    "Source": "台灣眾召會臺北總執事室",
    "PIC": "",
    "Tel": "03-557-9639",
    "href": "https://church.oursweb.net/church.php?pkey=830748",
    "Addr": "304033新竹縣新豐鄉松林街197號",
    "Pos": {
      "lat": "24.8718654",
      "lng": "120.99082569999996"
    }
  },
  {
    "Title": "卓越新竹行道會",
    "Type": "教會",
    "Area": "台灣 - 新竹縣",
    "Source": "中華基督教行道會聯會",
    "PIC": "葉志遠 傳道",
    "Tel": "0933-746-210",
    "href": "https://church.oursweb.net/church.php?pkey=831027",
    "Addr": "302052新竹縣竹北市復興一街251號3樓之8",
    "Pos": {
      "lat": "24.8118143",
      "lng": "121.03518559999998"
    }
  },
  {
    "Title": "浸信會奔跑教會",
    "Type": "教會",
    "Area": "台灣 - 新竹縣",
    "Source": "中華基督教浸信會聯會",
    "PIC": "李星九 牧師",
    "Tel": "03-582-1712",
    "href": "https://church.oursweb.net/church.php?pkey=831256",
    "Addr": "310019新竹縣竹東鎮富榮街95巷1號",
    "Pos": {
      "lat": "24.7787923",
      "lng": "121.0362143"
    }
  }
]